AIRPORT_SEQ_ID;ID;AIRPORT;DISPLAY_AIRPORT_NAME;AIRPORT_COUNTRY_CODE_ISO;AIRPORT_STATE_NAME;LATITUDE;LONGITUDE;AIRPORT_IS_CLOSED
1000101;10001;01A;Afognak Lake Airport;US;Alaska;58.10944444;-152.9066667;0
1000301;10003;03A;Bear Creek Mining Strip;US;Alaska;65.54805556;-161.0716667;0
1000401;10004;04A;Lik Mining Camp;US;Alaska;68.08333333;-163.1666667;0
1000501;10005;05A;Little Squaw Airport;US;Alaska;67.57;-148.1838889;0
1000601;10006;06A;Kizhuyak Bay;US;Alaska;57.74527778;-152.8827778;0
1000701;10007;07A;Klawock Seaplane Base;US;Alaska;55.55472222;-133.1016667;0
1000801;10008;08A;Elizabeth Island Airport;US;Alaska;59.15694444;-151.8291667;0
1000901;10009;09A;Augustin Island;US;Alaska;59.36277778;-153.4305556;0
1001002;10010;1B1;Columbia County;US;New York;42.29138889;-73.71027778;0
1001104;10011;1G4;Grand Canyon West;US;Arizona;35.98611111;-113.8169444;0
1001201;10012;1N7;Blairstown Airport;US;New Jersey;40.97111111;-74.9975;0
1001301;10013;8F3;Crosbyton Municipal;US;Texas;33.62388889;-101.2408333;0
1001402;10014;A01;Blair Lake;US;Alaska;64.36361111;-147.3638889;0
1001501;10015;A02;Deadmans Bay Airport;US;Alaska;57.06666667;-153.9377778;0
1001601;10016;A03;Hallo Bay Airport;US;Alaska;58.4575;-154.0233333;0
1001701;10017;A04;Red Lake Airport;US;Alaska;57.27722222;-154.3422222;0
1001801;10018;A05;Shell Lake Airport;US;Alaska;61.96388889;-151.5558333;0
1001901;10019;A06;Navigator Airstrip;US;Alaska;65.65555556;-165.3563889;0
1002002;10020;A07;Roland Norton Memorial;US;Alaska;66.76611111;-160.1527778;0
1002101;10021;A08;Pillar Bay Airport;US;Alaska;56.59805556;-134.2427778;0
1002205;10022;A09;Johnstone Point Airport;US;Alaska;60.48166667;-146.5841667;0
1002302;10023;KTH;Tikchik Lodge Airport;US;Alaska;59.95555556;-158.4805556;0
1002401;10024;A11;Bell Creek Airport;US;Alaska;60.78388889;-159.5402778;0
1002501;10025;A12;Cinnabar Airport;US;Alaska;60.78527778;-158.8644444;0
1002601;10026;A13;Mountaintop Mine Airport;US;Alaska;61.39027778;-157.9955556;0
1002701;10027;A14;Whitebear Airport;US;Alaska;61.18888889;-159.8583333;0
1002802;10028;A15;Puviaq Airport;US;Alaska;70.71555556;-154.4069444;1
1002901;10029;A16;Arley Lake Airport;US;Alaska;70.74694444;-155.3608333;0
1003001;10030;A17;Port Vita Airport;US;Alaska;58.06555556;-153.0725;0
1003104;10031;A18;Kantishna Airport;US;Alaska;63.54111111;-150.995;0
1003301;10033;A20;Alpine Airstrip;US;Alaska;70.34416667;-150.9447222;0
1003401;10034;A21;Serpentine Airport;US;Alaska;65.85138889;-164.7027778;0
1003501;10035;A22;Driftwood Bay Airport;US;Alaska;53.97277778;-166.8569444;0
1003601;10036;A23;Bradley Lake Airport;US;Alaska;59.77611111;-151.9636111;0
1003701;10037;A24;Chilkat Lake Airport;US;Alaska;59.33166667;-135.8966667;0
1003801;10038;A25;Nugget Creek Airport;US;Alaska;59.28833333;-136.1738889;0
1003901;10039;A26;Ivotuk Airstrip;US;Alaska;68.48333333;-155.7333333;0
1004001;10040;A27;Pogo Mines Airport;US;Alaska;64.44;-144.9363889;0
1004101;10041;A28;Ayakulik River Airport;US;Alaska;57.25388889;-154.4222222;0
1004201;10042;A29;Kiluda Bay Airport;US;Alaska;57.32305556;-153.1494444;0
1004301;10043;A30;Terror Lake Airport;US;Alaska;57.96388889;-153.0583333;0
1004401;10044;A31;Selief Bay Airport;US;Alaska;58.98277778;-153.1833333;0
1004701;10047;A34;Laura Lake Airport;US;Alaska;58.36194444;-152.3122222;0
1004901;10049;A36;Deep Bay Airport;US;Alaska;55.56027778;-131.6555556;0
1005002;10050;A37;Kako Airport;US;Alaska;61.89888889;-161.4397222;0
1005101;10051;A38;Molly Creek Airport;US;Alaska;64.09722222;-143.2666667;0
1005201;10052;A39;Ptarmigan Lake Airport;US;Alaska;61.86611111;-141.1597222;0
1005301;10053;A40;Cape Simpson Airport;US;Alaska;71.05694444;-154.7283333;0
1005402;10054;A41;Kogru River Airport;US;Alaska;70.57472222;-152.2588889;1
1005501;10055;A42;Teshepkuk Lake Airport;US;Alaska;70.35833333;-153.1966667;0
1005601;10056;A43;Trident Basin Seaplane Base;US;Alaska;57.78083333;-152.3911111;0
1005801;10058;A45;Lake Florence Airport;US;Alaska;57.81666667;-134.5833333;0
1005901;10059;A46;Lake Hasselborg Airport;US;Alaska;57.7;-134.2666667;0
1006001;10060;A47;Distin Lake Airport;US;Alaska;57.61666667;-134.3666667;0
1006101;10061;A48;Port Hobron Airport;US;Alaska;57.15;-153.15;0
1006201;10062;A49;Mooseville Airstrip Airport;US;Alaska;70.28444444;-152.2119444;0
1006301;10063;A50;Big Bay Airport;US;Alaska;58.5625;-152.5961111;0
1006401;10064;A51;Wien Lake Airport;US;Alaska;64.35277778;-151.275;0
1006501;10065;A52;Silver Salmon Creek Airport;US;Alaska;59.96388889;-152.6822222;0
1006601;10066;A53;Blear Lake Airport;US;Alaska;64.33333333;-147.5;0
1006701;10067;A54;Cannery Bay Airport;US;Alaska;53.68333333;-166.75;0
1006901;10069;A56;Johnsons Landing;US;Alaska;56.03666667;-160.2661111;0
1007002;10070;A57;International Seafoods Airport;US;Alaska;58.26666667;-157.5333333;0
1007101;10071;A58;Cosna River Airport;US;Alaska;64.5;-151.6666667;0
1007201;10072;A59;Ivatuk Airport;US;Alaska;68.48777778;-155.7575;0
1007402;10074;A61;Cape Sarichef Airport;US;Alaska;54.5825;-164.9144444;0
1007501;10075;A62;Taylor Mountain;US;Alaska;60.86777778;-157.3919444;0
1007605;10076;A63;Coal Creek;US;Alaska;65.31166667;-143.1341667;0
1007801;10078;A65;Karluk Portage Airport;US;Alaska;57.53833333;-154.1644444;0
1007905;10079;A66;Hope Airport;US;Alaska;60.90722222;-149.6227778;0
1008001;10080;A67;Viekoda Bay Airport;US;Alaska;57.84944444;-153.1152778;0
1008201;10082;A69;Cathedral Strip;US;Alaska;55.74;-162.1252778;0
1008301;10083;A70;Village Islands Airport;US;Alaska;57.77416667;-153.5447222;0
1008401;10084;A71;Bear Cove Farm;US;Alaska;59.73833333;-151.03;0
1008501;10085;A72;Chinitna Bay Airport;US;Alaska;59.83333333;-152.5847222;0
1008601;10086;A73;McKinley National Park;US;Alaska;63.7325;-148.9105556;0
1008701;10087;A74;Dog Fish Bay;US;Alaska;59.24111111;-151.8772222;0
1008801;10088;A75;Malina Bay Airport;US;Alaska;58.17194444;-152.8941667;0
1008901;10089;A76;Red Fox Bay Airport;US;Alaska;58.46444444;-152.5930556;0
1009001;10090;A77;Shearwater Airport;US;Alaska;57.34333333;-152.8972222;0
1009101;10091;A78;Lake;US;Alaska;71.03;-154.4436111;0
1009201;10092;A79;Cape Simpson No. 1;US;Alaska;71.50166667;-154.0338889;0
1009301;10093;A80;Cape Simpson No. 7;US;Alaska;70.57388889;-155.3213889;0
1009401;10094;A81;Cape Simpson #1;US;Alaska;70.66277778;-154.8366667;0
1009501;10095;A82;Nikiski Private Airstrip;US;Alaska;60.69027778;-151.2888889;0
1009601;10096;A83;Petrof Point Airport;US;Alaska;59.37638889;-150.765;0
1009701;10097;A84;Denali West Lodge Private;US;Alaska;63.75555556;-147.93;0
1009801;10098;A85;Big River Airport;US;Alaska;61.85944444;-154.2766667;0
1010001;10100;A87;Carry Inlet Airport;US;Alaska;58.58305556;-152.4458333;0
1010201;10102;A89;Montague Island Airport;US;Alaska;59.925;-147.5166667;0
1010301;10103;A90;Shannon Pond Airport;US;Alaska;59.03916667;-158.4638889;0
1010401;10104;A91;Omalik Lagoon Airport;US;Alaska;69.15555556;-163.4972222;0
1010501;10105;A92;Omolik Lagoon Airport;US;Alaska;69.14805556;-163.5102778;0
1010601;10106;A93;Bradley Lake Project Airport;US;Alaska;59.79166667;-151.2666667;0
1010701;10107;A94;Ice Strip;US;Alaska;70.57416667;-155.3180556;0
1010801;10108;A95;Ice Strip;US;Alaska;70.31194444;-153.2491667;0
1010901;10109;A96;Ice Strip;US;Alaska;70.98083333;-157.095;0
1011001;10110;A97;Akulik Air Strip;US;Alaska;68.98555556;-163.4797222;0
1011101;10111;A98;Deadfall Air Strip;US;Alaska;69.17083333;-163.2563889;0
1011201;10112;A99;Eagle Creek Airport;US;Alaska;68.67666667;-162.6469444;0
1011301;10113;AA1;Ice Kong;US;Alaska;59.95277778;-162.6169444;0
1011601;10116;AA4;Glacier Split;US;Alaska;59.63333333;-151.2083333;0
1011701;10117;AA5;Selby Lake Airport;US;Alaska;66.95583333;-155.615;0
1011802;10118;AAA;Anaa Airport;PF;;-17.3525;-145.51;0
1011901;10119;AAB;Arrabury Station;AU;;-26.7;141.0416667;0
1012002;10120;AAC;El Arish International;EG;;31.07333333;33.83583333;0
1012103;10121;AAE;Rabah Bitat;DZ;;36.82944444;7.81388889;0
1012204;10122;AAF;Apalachicola Regional Cleve Randolph Field;US;Florida;29.7275;-85.0275;0
1012306;10123;AAH;Aachen Merzbrueck;DE;;50.82305556;6.1875;0
1012405;10124;AAI;Arraias Airport;BR;;-13.02583333;-46.88361111;0
1012503;10125;AAL;Aalborg Airport;DK;;57.09416667;9.85583333;0
1012602;10126;AAM;Malamala;ZA;;-24.81694444;31.54416667;0
1012703;10127;AAN;Al Ain International;AE;;24.26166667;55.60916667;0
1012805;10128;AAO;Anaco Airport;VE;;9.43;-64.47083333;0
1012904;10129;AAQ;Vityazevo;RU;;45.00222222;37.34722222;0
1013003;10130;AAR;Aarhus Airport;DK;;56.3;10.61888889;0
1013101;10131;AAU;Asau W Sam;WS;;-13.51666667;-172.65;0
1013203;10132;AAX;Romeu Zema;BR;;-19.56333333;-46.96027778;0
1013403;10134;ABD;Abadan Airport;IR;;30.36527778;48.23305556;0
1013506;10135;ABE;Lehigh Valley International;US;Pennsylvania;40.6525;-75.44027778;0
1013603;10136;ABI;Abilene Regional;US;Texas;32.41138889;-99.68194444;0
1013706;10137;ABJ;Felix Houphouet Boigny Abidjan International;CI;;5.26138889;-3.92583333;0
1013805;10138;ABK;Kebri Dahar;ET;;6.73277778;44.24138889;0
1013901;10139;ABL;Ambler River;US;Alaska;67.0875;-157.8458333;0
1014005;10140;ABQ;Albuquerque International Sunport;US;New Mexico;35.03888889;-106.6083333;0
1014106;10141;ABR;Aberdeen Regional;US;South Dakota;45.44666667;-98.4225;0
1014205;10142;ABS;Abu Simbel Airport;EG;;22.37583333;31.61166667;0
1014306;10143;ABT;King Saud Bin Abdulaziz;SA;;20.29833333;41.63583333;0
1014405;10144;ABV;Nnamdi Azikiwe International;NG;;9.00666667;7.26305556;0
1014502;10145;ABX;Albury Airport;AU;;-36.06777778;146.9580556;0
1014602;10146;ABY;Southwest Georgia Regional;US;Georgia;31.53555556;-84.19444444;0
1014706;10147;ABZ;Aberdeen Dyce;GB;;57.20361111;-2.19916667;0
1014802;10148;ACA;General Juan N Alvarez International;MX;;16.75694444;-99.75388889;0
1014902;10149;ACB;Antrim County;US;Michigan;44.98861111;-85.19833333;0
1015002;10150;ACC;Accra Kotoka International;GH;;5.60444444;-0.1675;0
1015102;10151;ACE;Lanzarote;ES;;28.94555556;-13.60527778;0
1015202;10152;ACH;St Gallen Altenrhein;CH;;47.485;9.56;0
1015307;10153;ACI;Alderney Airport;GB;;49.70694444;-2.21472222;0
1015405;10154;ACK;Nantucket Memorial;US;Massachusetts;41.25305556;-70.06;0
1015502;10155;ACT;Waco Regional;US;Texas;31.61222222;-97.23027778;0
1015601;10156;ACU;Achutupo Airport;PA;;8.43333333;-77.96666667;0
1015706;10157;ACV;California Redwood Coast Humboldt County;US;California;40.97777778;-124.1083333;0
1015804;10158;ACY;Atlantic City International;US;New Jersey;39.4575;-74.57722222;0
1015902;10159;ADA;Adana International;TR;;36.98222222;35.28027778;0
1016002;10160;ADB;Adnan Menderes;TR;;38.29222222;27.15583333;0
1016103;10161;ADC;Andakombe Airport;PG;;-7.13722222;145.745;0
1016202;10162;ADD;Bole International;ET;;8.97805556;38.79944444;0
1016303;10163;ADE;Aden International;YE;;12.82944444;45.02888889;0
1016403;10164;ADJ;Marka International;JO;;31.97277778;35.99166667;0
1016506;10165;ADK;Adak;US;Alaska;51.88361111;-176.6425;0
1016602;10166;ADL;Adelaide International;AU;;-34.945;138.5305556;0
1016705;10167;ADM;Ardmore Municipal;US;Oklahoma;34.30388889;-97.02055556;0
1016805;10168;ADN;Andes Airport;CO;;5.69777778;-75.88027778;0
1016901;10169;ADO;Andamooka Airport;AU;;-30.43777778;137.1372222;1
1017004;10170;ADQ;Kodiak Airport;US;Alaska;57.74972222;-152.4938889;0
1017102;10171;ADS;Addison;US;Texas;32.96861111;-96.83638889;0
1017205;10172;ADW;Joint Base Andrews;US;Maryland;38.81083333;-76.86694444;0
1017305;10173;ADX;RAF Leuchars;GB;;56.37416667;-2.86861111;0
1017403;10174;ADZ;Gustavo Rojas Pinilla;CO;;12.58361111;-81.71138889;0
1017501;10175;DHF;Al Dhafra Air Base;AE;;24.24833333;54.54777778;0
1017601;10176;AED;Aleneva Airport;US;Alaska;58.03333333;-152.9;0
1017701;10177;AEG;Aek Godang;ID;;1.4;99.43055556;0
1017803;10178;AEH;Abeche Airport;TD;;13.8475;20.84333333;0
1018002;10180;AEO;Aioun El Atrouss Airport;MR;;16.71138889;-9.63777778;0
1018102;10181;AEP;Aeroparque Jorge Newbery;AR;;-34.55916667;-58.41583333;0
1018202;10182;AER;Adler/Sochi Airport;RU;;43.45;39.93333333;0
1018303;10183;AES;Vigra;NO;;62.56027778;6.11027778;0
1018402;10184;AET;Allakaket Airport;US;Alaska;66.55194444;-152.6222222;0
1018502;10185;AEX;Alexandria International;US;Louisiana;31.3275;-92.54861111;0
1018605;10186;AEY;Akureyri Airport;IS;;65.65666667;-18.07194444;0
1018806;10188;AFA;San Rafael Airport;AR;;-34.58777778;-68.40361111;0
1018905;10189;AFF;USAF Academy Airfield;US;Colorado;38.97416667;-104.8177778;0
1019006;10190;AFK;Nebraska City Municipal;US;Nebraska;40.60666667;-95.86666667;0
1019102;10191;AFO;Afton Municipal;US;Wyoming;42.70888889;-110.9422222;0
1019205;10192;AFP;Anson County Jeff Cloud Field;US;North Carolina;35.02055556;-80.07722222;0
1019407;10194;AFW;Fort Worth Alliance;US;Texas;32.99027778;-97.31944444;0
1019502;10195;AFY;Afyon Airport;TR;;38.72638889;30.60111111;0
1019602;10196;AGA;Inezgane;MA;;30.38138889;-9.54611111;0
1019703;10197;AGB;Augsburg Airport;DE;;48.42527778;10.93194444;0
1019806;10198;AGC;Allegheny County;US;Pennsylvania;40.35444444;-79.92916667;0
1019907;10199;AGF;Agen La Garenne;FR;;44.17388889;0.59305556;0
1020001;10200;AGG;Angoram Airport;PG;;-4.06583333;144.0738889;0
1020106;10201;AGH;Angelholm;SE;;56.29111111;12.855;0
1020201;10202;AGK;Kagua Airport;PG;;-6.40333333;143.8466667;0
1020302;10203;AGL;Wanigela Airport;PG;;-9.3375;149.1555556;0
1020401;10204;AGN;Angoon Seaplane Base;US;Alaska;57.50388889;-134.5833333;0
1020508;10205;AGP;Malaga Airport;ES;;36.67972222;-4.49583333;0
1020602;10206;AGQ;Agrinion Airport;GR;;38.60194444;21.35111111;0
1020702;10207;AGR;Agra Airport;IN;;27.15777778;77.96083333;0
1020803;10208;AGS;Augusta Regional at Bush Field;US;Georgia;33.37;-81.96444444;0
1020901;10209;AGT;Guarani International;PY;;-25.45555556;-54.84361111;0
1021003;10210;AGU;Jesus Teran International;MX;;21.70555556;-102.3177778;0
1021102;10211;AGV;Oswaldo Guevara Mujica;VE;;9.55333333;-69.2375;0
1021201;10212;AGX;Agatti Island Airport;IN;;10.83333333;72.2;0
1021301;10213;AHA;Naha AB;JP;;26.19194444;127.6477778;1
1021405;10214;AHB;Abha Airport;SA;;18.24027778;42.65638889;0
1021502;10215;AHD;Ardmore Downtown Executive;US;Oklahoma;34.14694444;-97.12277778;0
1021605;10216;AHN;Athens/Ben Epps;US;Georgia;33.94861111;-83.32583333;0
1021706;10217;AHO;Alghero;IT;;40.63222222;8.29083333;0
1021805;10218;AHS;Auas;HN;;15.47277778;-84.35305556;0
1021901;10219;AHT;Amchitka;US;Alaska;51.37861111;179.2586111;0
1022002;10220;AHU;Cherif El Idrissi International;MA;;35.17722222;-3.83944444;0
1022105;10221;AIA;Alliance Municipal;US;Nebraska;42.05333333;-102.8036111;0
1022201;10222;AIB;Anita Bay Airport;US;Alaska;56.19;-132.4458333;0
1022302;10223;AID;Anderson Municipal-Darlington Field;US;Indiana;40.10861111;-85.61305556;0
1022403;10224;AIK;Aiken Regional;US;South Carolina;33.64944444;-81.685;0
1022502;10225;AIN;Wainwright Airport;US;Alaska;70.63805556;-159.9947222;0
1022607;10226;AIT;Aitutaki Airport;CK;;-18.83694444;-159.7611111;0
1022702;10227;AIY;Bader Field;US;New Jersey;39.36;-74.45722222;1
1022802;10228;AIZ;Lee C Fine Memorial;US;Missouri;38.09611111;-92.54944444;0
1022906;10229;AJA;Ajaccio Napoleon Bonaparte;FR;;41.92388889;8.8025;0
1023002;10230;AJF;Al Jouf;SA;;29.785;40.1;0
1023102;10231;AJJ;Akjoujt Airport;MR;;19.72805556;-14.38527778;0
1023201;10232;AJL;Lengpui;IN;;23.84055556;92.61972222;0
1023305;10233;AJN;Ouani;KM;;-12.13111111;44.43055556;0
1023403;10234;AJR;Arvidsjaur Airport;SE;;65.59166667;19.2775;0
1023502;10235;AJU;Santa Maria International;BR;;-10.98388889;-37.07027778;0
1023607;10236;AJY;Mano Dayak;NE;;16.96083333;8.00916667;0
1023702;10237;AKB;Atka Airport;US;Alaska;52.22055556;-174.2061111;0
1023801;10238;AKC;Akron Fulton International;US;Ohio;41.0375;-81.46694444;0
1023903;10239;AKF;Kufra;LY;;24.17888889;23.31388889;0
1024102;10241;AKI;Akiak Airport;US;Alaska;60.90277778;-161.2305556;0
1024203;10242;AKJ;Asahikawa Airport;JP;;43.67083333;142.4475;0
1024302;10243;AKK;Akhiok Airport;US;Alaska;56.93861111;-154.1825;0
1024403;10244;AKL;Auckland International;NZ;;-37.01194444;174.7863889;0
1024502;10245;AKN;King Salmon Airport;US;Alaska;58.67638889;-156.6486111;0
1024602;10246;AKO;Colorado Plains Regional;US;Colorado;40.17555556;-103.2219444;0
1024702;10247;AKP;Anaktuvuk Pass Airport;US;Alaska;68.13361111;-151.7433333;0
1024802;10248;AKR;Akure Airport;NG;;7.24666667;5.30111111;0
1024904;10249;AKS;Auki Airport;SB;;-8.7025;160.6816667;0
1025002;10250;AKT;Akrotiri Airport;CY;;34.59027778;32.98777778;0
1025102;10251;AKX;Aktyubinsk Airport;KZ;;50.25;57.21666667;0
1025204;10252;AKY;Sittwe Airport;MM;;20.13333333;92.87055556;0
1025301;10253;AL1;Albertville Regional-Thomas J Brumlik Field;US;Alabama;34.22916667;-86.25583333;0
1025402;10254;AL2;Shelby County;US;Alabama;33.17777778;-86.78333333;0
1025506;10255;AL3;Huntsville Executive Tom Sharp Jr;US;Alabama;34.85944444;-86.5575;0
1025603;10256;ALA;Almaty Airport;KZ;;43.35555556;77.04388889;0
1025702;10257;ALB;Albany International;US;New York;42.74916667;-73.80194444;0
1025806;10258;ALC;Alicante Elche;ES;;38.28222222;-0.55805556;0
1025902;10259;ALE;Alpine Casparis Municipal;US;Texas;30.38416667;-103.6836111;0
1026005;10260;ALF;Alta Airport;NO;;69.9775;23.36472222;0
1026106;10261;ALG;Houari Boumediene;DZ;;36.6925;3.215;0
1026202;10262;ALH;Albany Airport;AU;;-34.94333333;117.8088889;0
1026302;10263;ALI;Alice International;US;Texas;27.74083333;-98.02694444;0
1026402;10264;ALJ;Alexander Bay Airport;ZA;;-28.575;16.53333333;0
1026501;10265;ALK;Asela Airport;ET;;7.58333333;39.06666667;0
1026606;10266;ALM;Alamogordo White Sands Regional;US;New Mexico;32.83944444;-105.9911111;0
1026702;10267;ALN;St. Louis Regional;US;Illinois;38.89;-90.04611111;0
1026802;10268;ALO;Waterloo Regional;US;Iowa;42.55694444;-92.40027778;0
1026902;10269;ALP;Aleppo International;SY;;36.18055556;37.22444444;0
1027001;10270;ALQ;Alegrete Airport;BR;;-29.79972222;-55.76333333;1
1027102;10271;ALR;Alexandra Airport;NZ;;-45.21138889;169.3716667;0
1027205;10272;ALS;San Luis Valley Regional/Bergman Field;US;Colorado;37.435;-105.8677778;0
1027301;10273;ALT;Alenquer Airport;BR;;-1.94055556;-54.74027778;0
1027401;10274;ALU;Alula Airport;SO;;11.98333333;50.78333333;0
1027506;10275;ALW;Walla Walla Regional;US;Washington;46.0925;-118.2841667;0
1027602;10276;ALX;Thomas C. Russell Field;US;Alabama;32.91472222;-85.96305556;0
1027702;10277;ALY;Alexandria International;EG;;31.18361111;29.94861111;0
1027801;10278;ALZ;Alitak Seaplane Base;US;Alaska;56.89583333;-154.2458333;0
1027903;10279;AMA;Rick Husband Amarillo International;US;Texas;35.21944444;-101.7058333;0
1028003;10280;AMD;Ahmedabad International;IN;;23.07722222;72.63444444;0
1028102;10281;AMF;Ama Airport;PG;;-4.10055556;141.6697222;0
1028201;10282;AMG;Amboin Airport;PG;;-4.6;143.5;0
1028302;10283;AMH;Arba Minch Airport;ET;;6.03944444;37.59083333;0
1028404;10284;AMI;Selaparang;ID;;-8.56055556;116.0947222;0
1028502;10285;AMK;Animas Air Park;US;Colorado;37.20305556;-107.8691667;0
1028602;10286;AML;Puerto Armuelles Airport;PA;;8.2675;-82.86472222;0
1028703;10287;AMM;Queen Alia International;JO;;31.72333333;35.99416667;0
1028802;10288;AMN;Gratiot Community;US;Michigan;43.32222222;-84.68805556;0
1028902;10289;AMO;Mao Airport;TD;;14.14638889;15.31527778;0
1029002;10290;AMP;Ampanihy Airport;MG;;-24.69944444;44.73277778;0
1029101;10291;AMQ;Pattimura;ID;;-3.71027778;128.0897222;0
1029202;10292;AMS;Schiphol;NL;;52.30861111;4.76388889;0
1029402;10294;AMW;Ames Municipal;US;Iowa;41.99194444;-93.62194444;0
1029501;10295;AMX;Ammaroo Station;AU;;-21.74;135.24;0
1029602;10296;AMY;Ambatomainty Airport;MG;;-17.68611111;45.625;0
1029701;10297;ANA;Anaheim-Disneyland HP;US;California;33.81666667;-117.9333333;0
1029805;10298;ANB;Anniston Regional;US;Alabama;33.58805556;-85.85805556;0
1029906;10299;ANC;Ted Stevens Anchorage International;US;Alaska;61.17416667;-149.9980556;0
1030002;10300;AND;Anderson Regional;US;South Carolina;34.49444444;-82.70944444;0
1030103;10301;ANE;Angers Marce;FR;;47.56;-0.31277778;0
1030205;10302;ANF;Andres Sabella International;CL;;-23.44444444;-70.445;0
1030306;10303;ANG;Angouleme Brie Champniers;FR;;45.72944444;0.21833333;0
1030401;10304;ANI;Aniak Airport;US;Alaska;61.58166667;-159.5430556;0
1030505;10305;ANK;Etimesgut;TR;;39.95194444;32.68611111;0
1030602;10306;ANM;Antsirabato;MG;;-14.99944444;50.32027778;0
1030705;10307;ANN;Annette Island;US;Alaska;55.04222222;-131.5708333;0
1030805;10308;ANO;Angoche Airport;MZ;;-16.1825;39.94527778;0
1030902;10309;ANP;Lee;US;Maryland;38.94277778;-76.56833333;0
1031003;10310;ANR;Deurne;BE;;51.19;4.46305556;0
1031104;10311;ANS;Andahuaylas Airport;PE;;-13.70888889;-73.35138889;0
1031206;10312;ANU;V C Bird International;AG;;17.13611111;-61.79388889;0
1031302;10313;ANV;Anvik Airport;US;Alaska;62.64722222;-160.19;0
1031402;10314;ANX;Andoya;NO;;69.2925;16.14416667;0
1031702;10317;AOH;Lima Allen County;US;Ohio;40.70833333;-84.02694444;0
1031805;10318;AOI;Ancona Falconara;IT;;43.61638889;13.36222222;0
1031902;10319;AOJ;Aomori Airport;JP;;40.73333333;140.6886111;0
1032005;10320;AOK;Karpathos Airport;GR;;35.42111111;27.14583333;0
1032102;10321;AOL;Paso de Los Libres Airport;AR;;-29.68944444;-57.15194444;0
1032202;10322;AOO;Altoona-Blair County;US;Pennsylvania;40.29638889;-78.32;0
1032302;10323;AOR;Sultan Abdul Halim;MY;;6.18972222;100.3983333;0
1032401;10324;AOS;Amook Bay Airport;US;Alaska;57.45472222;-153.8130556;0
1032505;10325;APA;Centennial;US;Colorado;39.57;-104.8491667;0
1032607;10326;APB;Apolo Airport;BO;;-14.73888889;-68.41138889;0
1032704;10327;APC;Napa County;US;California;38.21305556;-122.2805556;0
1032801;10328;APE;San Juan Aposento Airport;PE;;-15.35;-75.16666667;0
1032905;10329;APF;Naples Municipal;US;Florida;26.1525;-81.77555556;0
1033003;10330;APG;Phillips AAF;US;Maryland;39.46555556;-76.16833333;0
1033102;10331;APK;Apataki Airport;PF;;-15.57527778;-146.4130556;0
1033202;10332;APL;Nampula Airport;MZ;;-15.10555556;39.28166667;0
1033302;10333;APN;Alpena County Regional;US;Michigan;45.07805556;-83.56027778;0
1033401;10334;APO;Apartado Airport;CO;;7.03333333;-77.2;0
1033502;10335;APR;April River Airport;PG;;-4.67638889;142.54;0
1033601;10336;APT;Marion County Brown Field;US;Tennessee;35.06055556;-85.58527778;0
1033703;10337;APV;Apple Valley Airport;US;California;34.57527778;-117.1861111;0
1033803;10338;APW;Faleolo International;WS;;-13.83;-172.0083333;0
1033907;10339;AQI;Hafr Al Batin;SA;;28.33611111;46.12694444;0
1034005;10340;AQJ;King Hussein International;JO;;29.61111111;35.01777778;0
1034205;10342;AQP;Rodriguez Ballon International;PE;;-16.34055556;-71.57083333;0
1034301;10343;AQS;Saqani Airport;FJ;;-16.75;179.35;0
1034405;10344;AQY;Girdwood Airport;US;Alaska;60.96888889;-149.1194444;0
1034503;10345;AR1;Russellville Regional;US;Arkansas;35.25916667;-93.0925;0
1034604;10346;AR2;Dennis F Cantrell Field;US;Arkansas;35.08111111;-92.42444444;0
1034703;10347;ARA;Acadiana Regional;US;Louisiana;30.03777778;-91.88388889;0
1034802;10348;ARB;Ann Arbor Municipal;US;Michigan;42.22305556;-83.74555556;0
1034902;10349;ARC;Arctic Village Airport;US;Alaska;68.11472222;-145.5794444;0
1035001;10350;ARD;Arcadia Municipal;ID;;-8.25;124.75;0
1035106;10351;ARE;Antonio/Nery/Juarbe Pol;US;Puerto Rico;18.45083333;-66.67555556;0
1035202;10352;ARG;Walnut Ridge Regional;US;Arkansas;36.12472222;-90.925;0
1035305;10353;ARH;Talagi;RU;;64.60027778;40.71666667;0
1035402;10354;ARI;Chacalluta;CL;;-18.34861111;-70.33861111;0
1035502;10355;ARK;Arusha Airport;TZ;;-3.36666667;36.62555556;0
1035602;10356;ARM;Armidale Airport;AU;;-30.52805556;151.6172222;0
1035702;10357;ARN;Arlanda;SE;;59.65194444;17.91861111;0
1035803;10358;ARP;Aragip Airport;PG;;-9.87333333;149.4830556;0
1035904;10359;ARQ;Arauquita Airport;CO;;7.02111111;-71.38888889;0
1036002;10360;ARS;Aragarcas Airport;BR;;-15.89944444;-52.24111111;0
1036105;10361;ART;Watertown International;US;New York;43.99194444;-76.01944444;0
1036205;10362;ARU;Aracatuba Airport;BR;;-21.14138889;-50.42444444;0
1036301;10363;ARV;Lakeland/Noble F. Lee Memorial Field;US;Wisconsin;45.92805556;-89.73083333;0
1036405;10364;ARW;Arad International;RO;;46.17666667;21.26194444;0
1036501;10365;ARX;Asbury Park/Monmouth County;US;New Jersey;40.18333333;-74.11666667;1
1036602;10366;ARY;Ararat Airport;AU;;-37.30944444;142.9886111;0
1036703;10367;ARZ;N'zeto Airport;AO;;-7.25888889;12.8625;1
1036803;10368;ASA;Assab International;ER;;13.07166667;42.645;0
1036903;10369;ASB;Ashgabat Airport;TM;;37.98694444;58.36111111;0
1037001;10370;ASC;Ascension Airport;BO;;-15.91666667;-63.15;0
1037102;10371;ASD;Fresh Creek;BS;;24.69805556;-77.79555556;0
1037205;10372;ASE;Aspen Pitkin County Sardy Field;US;Colorado;39.22194444;-106.8683333;0
1037302;10373;ASG;Ashburton Airport;NZ;;-43.90277778;171.7997222;0
1037406;10374;ASH;Boire Field;US;New Hampshire;42.7825;-71.51416667;0
1037502;10375;ASI;Ascension Aux Af;SH;;-7.96972222;-14.39361111;0
1037602;10376;ASJ;Amami;JP;;28.43055556;129.7125;0
1037702;10377;ASK;Yamoussoukro Airport;CI;;6.90305556;-5.36611111;0
1037802;10378;ASL;Harrison County;US;Texas;32.52055556;-94.30777778;0
1037904;10379;ASM;Asmara International;ER;;15.28777778;38.90805556;0
1038002;10380;ASN;Talladega Municipal;US;Alabama;33.56944444;-86.05111111;0
1038106;10381;ASO;Asosa Hidase;ET;;10.02055556;34.58222222;0
1038205;10382;ASP;Alice Springs Airport;AU;;-23.80444444;133.8952778;0
1038305;10383;ASQ;Austin Airport;US;Nevada;39.46805556;-117.1975;0
1038405;10384;ASR;Kayseri Airport;TR;;38.77027778;35.49555556;0
1038502;10385;AST;Astoria Regional;US;Oregon;46.15805556;-123.8786111;0
1038603;10386;ASU;Silvio Pettirossi International;PY;;-25.23972222;-57.51916667;0
1038702;10387;ASW;Aswan International;EG;;23.96444444;32.82;0
1038802;10388;ASX;John F Kennedy Memorial;US;Wisconsin;46.54861111;-90.91888889;0
1038906;10389;ASY;Ashley Municipal;US;North Dakota;46.02305556;-99.35277778;0
1039001;10390;ATA;Anta Huaraz;PE;;-9.34722222;-77.6;0
1039101;10391;ATB;Atbara Airport;SD;;17.70972222;34.05722222;0
1039201;10392;ATC;Arthur's Town Airport;BS;;24.62944444;-75.67388889;0
1039303;10393;ATE;Antlers Municipal;US;Oklahoma;34.19361111;-95.65;0
1039401;10394;ATH;Eleftherios Venizelos International;GR;;37.93666667;23.94444444;0
1039502;10395;ATI;Artigas International;UY;;-30.40083333;-56.50777778;0
1039605;10396;ATK;Atqasuk Edward Burnell Sr. Memorial;US;Alaska;70.46722222;-157.4355556;0
1039707;10397;ATL;Hartsfield-Jackson Atlanta International;US;Georgia;33.63666667;-84.42777778;0
1039805;10398;ATM;Altamira Airport;BR;;-3.25305556;-52.25388889;0
1039905;10399;ATN;Namatanai Airport;PG;;-3.66972222;152.4380556;0
1040005;10400;ATO;Ohio University;US;Ohio;39.21194444;-82.22916667;0
1040101;10401;ATP;Aitape Airport;PG;;-3.1425;142.3466667;1
1040205;10402;ATQ;Amritsar International;IN;;31.71138889;74.79638889;0
1040302;10403;ATR;Atar Airport;MR;;20.50666667;-13.04305556;0
1040406;10404;ATS;Artesia Municipal;US;New Mexico;32.85194444;-104.4675;0
1040505;10405;ATT;Atmautluak Airport;US;Alaska;60.86777778;-162.2741667;0
1040602;10406;ATU;Casco Cove CGS;US;Alaska;52.8325;173.1755556;0
1040705;10407;ATV;Ati Airport;TD;;13.23972222;18.31555556;0
1040805;10408;ATW;Appleton International;US;Wisconsin;44.25805556;-88.51916667;0
1040903;10409;ATY;Watertown Regional;US;South Dakota;44.91388889;-97.15472222;0
1041001;10410;ATZ;Assiut Airport;EG;;27.04638889;31.07861111;0
1041103;10411;AUA;Reina Beatrix International;AW;;12.50138889;-70.01555556;0
1041202;10412;AUC;Santiago Perez;CO;;7.06888889;-70.73694444;0
1041302;10413;AUD;Augustus Downs Airport;AU;;-18.51555556;139.8786111;0
1041402;10414;AUG;Augusta State;US;Maine;44.32055556;-69.79722222;0
1041502;10415;AUH;Abu Dhabi International;AE;;24.44333333;54.65277778;0
1041605;10416;AUK;Alakanuk Airport;US;Alaska;62.68305556;-164.7222222;0
1041702;10417;AUM;Austin Municipal;US;Minnesota;43.66277778;-92.93305556;0
1041802;10418;AUN;Auburn Municipal;US;California;38.95472222;-121.0816667;0
1041902;10419;AUO;Auburn University Regional;US;Alabama;32.615;-85.43388889;0
1042001;10420;AUP;Aguan Papua N.G.;PG;;-9.91666667;149.3333333;0
1042106;10421;AUQ;Hiva Oa/Atuona;PF;;-9.76583333;-139.0097222;0
1042202;10422;AUR;Aurillac Airport;FR;;44.89111111;2.42194444;0
1042302;10423;AUS;Austin - Bergstrom International;US;Texas;30.19444444;-97.67;0
1042405;10424;AUW;Wausau Downtown;US;Wisconsin;44.92638889;-89.62666667;0
1042502;10425;AUX;Araguaina Airport;BR;;-7.22777778;-48.24055556;0
1042605;10426;AUY;Aneityum Airport;VU;;-20.24944444;169.7708333;0
1042702;10427;AUZ;Aurora Municipal;US;Illinois;41.77194444;-88.47555556;0
1042805;10428;AVB;Aviano AB;IT;;46.03111111;12.59638889;0
1043002;10430;AVI;Maximo Gomez;CU;;22.02694444;-78.78972222;0
1043105;10431;AVL;Asheville Regional;US;North Carolina;35.43444444;-82.54277778;0
1043206;10432;AVN;Avignon Caumont;FR;;43.90722222;4.90194444;0
1043302;10433;AVO;Avon Park Executive;US;Florida;27.59138889;-81.52888889;0
1043405;10434;AVP;Wilkes Barre Scranton International;US;Pennsylvania;41.33833333;-75.72333333;0
1043502;10435;AVV;Avalon Airport;AU;;-38.03944444;144.4694444;0
1043602;10436;AVW;Marana Regional;US;Arizona;32.40944444;-111.2183333;0
1043701;10437;AVX;Catalina;US;California;33.405;-118.4158333;1
1043802;10438;AWA;Lake Awasa;ET;;7.06666667;38.49055556;0
1043903;10439;AWK;Wake Island Airfield;US;U.S. Pacific Trust Territories and Possessions;19.2825;166.6366667;0
1044001;10440;AWM;West Memphis Municipal;US;Arkansas;35.135;-90.23444444;0
1044101;10441;AWR;Awar Airport;PG;;-4.12416667;144.8702778;0
1044205;10442;AWX;Andrews County;US;Texas;32.33083333;-102.5297222;0
1044302;10443;AWZ;Ahwaz Airport;IR;;31.3375;48.76194444;0
1044406;10444;AXA;Clayton J Lloyd;AI;;18.20472222;-63.05388889;0
1044501;10445;AXB;Maxson Airfield;US;New York;44.31666667;-75.89972222;0
1044606;10446;AXC;Aramac Airport;AU;;-22.96333333;145.2516667;0
1044705;10447;AXD;Dimokritos;GR;;40.85583333;25.95611111;0
1044805;10448;AXM;El Eden;CO;;4.45083333;-75.76666667;0
1044902;10449;AXN;Chandler Field;US;Minnesota;45.86638889;-95.39472222;0
1045005;10450;AXP;Spring Point Airport;BS;;22.44194444;-73.97055556;0
1045102;10451;AXS;Altus/Quartz Mountain Regional;US;Oklahoma;34.69888889;-99.33833333;0
1045201;10452;AXT;Akita Airport;JP;;39.61555556;140.2186111;0
1045306;10453;AXU;Axum Atse Yohannes IV;ET;;14.14694444;38.7725;0
1045402;10454;AXV;Neil Armstrong;US;Ohio;40.49361111;-84.29805556;0
1045502;10455;AXX;Angel Fire;US;New Mexico;36.42194444;-105.29;0
1045601;10456;AYL;Anthony Lagoon Airport;AU;;-18.01666667;135.55;0
1045702;10457;AYP;Coronel FAP Alfredo Mendivil Duarte;PE;;-13.15472222;-74.20444444;0
1045801;10458;AYQ;Ayers Rock Connellan;AU;;-25.18611111;130.9755556;0
1045906;10459;AYR;Ayr Airport;AU;;-19.59305556;147.3241667;0
1046003;10460;AYS;Waycross-Ware County;US;Georgia;31.24833333;-82.39527778;0
1046103;10461;AYT;Antalya Airport;TR;;36.89972222;30.7975;0
1046203;10462;AYW;Ayawasi Airport;ID;;-1.15972222;132.4641667;0
1046302;10463;AZ1;Valle;US;Arizona;35.65055556;-112.1480556;0
1046402;10464;AZ2;H. A. Clark Memorial Field;US;Arizona;35.30555556;-112.1944444;0
1046502;10465;AZ3;Glendale Municipal;US;Arizona;33.52694444;-112.2952778;0
1046602;10466;AZA;Phoenix - Mesa Gateway;US;Arizona;33.30777778;-111.6555556;0
1046706;10467;AZD;Shahid Sadooghi International;IR;;31.905;54.27638889;0
1046801;10468;AZG;Pablo L. Sidar;MX;;19.09361111;-102.3936111;0
1046902;10469;AZO;Kalamazoo/Battle Creek International;US;Michigan;42.23444444;-85.55166667;0
1047002;10470;AZS;El Catey International;DO;;19.26944444;-69.73694444;0
1047101;10471;B19;Biddeford Municipal;US;Maine;43.46416667;-70.4725;0
1047205;10472;B21;Sugarloaf Regional;US;Maine;45.08555556;-70.21638889;0
1047302;10473;BAA;Bialla Airport;PG;;-5.33055556;151.0080556;0
1047402;10474;BAB;Beale AFB;US;California;39.13611111;-121.4366667;0
1047501;10475;BAC;Barranca de Upia Airport;CO;;4.56916667;-72.96722222;0
1047605;10476;BAD;Barksdale AFB;US;Louisiana;32.50194444;-93.6625;0
1047701;10477;BAE;Barcelonnette Airport;FR;;44.38333333;6.63333333;0
1047805;10478;BAF;Westfield Barnes Regional;US;Massachusetts;42.15805556;-72.71583333;0
1047905;10479;BAG;Baguio Airport;PH;;16.375;120.6188889;0
1048005;10480;BAH;Bahrain International;BH;;26.27083333;50.63361111;0
1048103;10481;BAI;Buenos Aires Airport;CR;;9.16333333;-83.33027778;0
1048207;10482;GYD;Heydar Aliyev International;AZ;;40.47222222;50.04944444;0
1048302;10483;BAL;Batman Airport;TR;;37.92888889;41.11666667;0
1048402;10484;BAM;Battle Mountain Airport;US;Nevada;40.59916667;-116.8744444;0
1048501;10485;BAO;Udorn AB;TH;;17.38305556;102.8;0
1048603;10486;BAQ;Ernesto Cortissoz;CO;;10.88972222;-74.78083333;0
1048701;10487;BAR;Baker AAF;US;Alaska;55.36666667;-133.6;1
1048801;10488;BAT;Barth Airport;DD;;54.33888889;12.71138889;1
1048903;10489;BAU;Bauru-Arealva;BR;;-22.16111111;-49.07;0
1049002;10490;BAV;Baotou Airport;CN;;40.55944444;109.9983333;0
1049107;10491;BAX;Mikhaylovka;RU;;53.36333333;83.53972222;0
1049203;10492;BAY;Maramures;RO;;47.65833333;23.46611111;0
1049302;10493;BBA;Balmaceda Airport;CL;;-45.91611111;-71.68944444;0
1049405;10494;BBC;Bay City Regional;US;Texas;28.97333333;-95.86333333;0
1049501;10495;BBF;N Eng Heliport;US;Massachusetts;42.50833333;-71.18333333;1
1049702;10497;BBI;Bhubaneswar Airport;IN;;20.24444444;85.81777778;0
1049805;10498;BBO;Berbera International;SO;;10.38916667;44.94138889;0
1049902;10499;BBQ;Cocoa Point;AG;;17.55555556;-61.765;0
1050005;10500;BBR;Baillif;GP;;16.01361111;-61.74305556;0
1050103;10501;BBS;Blackbushe Airport;GB;;51.32388889;-0.84777778;0
1050205;10502;BBT;Berberati Airport;CF;;4.22166667;15.78638889;0
1050305;10503;BBU;Baneasa Aurel Vlaicu;RO;;44.50333333;26.10277778;0
1050403;10504;BBX;Wings Field;US;Pennsylvania;40.1375;-75.26527778;0
1050503;10505;BBY;Bambari Airport;CF;;5.84694444;20.64972222;0
1050602;10506;BBZ;Zambezi Airport;ZM;;-13.5375;23.10777778;0
1050702;10507;BCA;Gustavo Rizo;CU;;20.36527778;-74.50611111;0
1050802;10508;BCB;Virginia Tech/Montgomery Executive;US;Virginia;37.20777778;-80.40777778;0
1050901;10509;BCC;Bear Creek Airport;US;Alaska;57.6175;-155.8672222;0
1051001;10510;BCD;Bacolod Airport;PH;;10.6425;122.9297222;1
1051102;10511;BCE;Bryce Canyon Airport;US;Utah;37.70638889;-112.1458333;0
1051203;10512;BCH;Cakung;TL;;-8.48555556;126.3994444;0
1051302;10513;BCI;Barcaldine Airport;AU;;-23.56527778;145.3066667;0
1051401;10514;BCJ;Baca Grande;US;Colorado;37.96666667;-105.7666667;0
1051502;10515;BCL;Barra del Colorado Airport;CR;;10.76861111;-83.58555556;0
1051605;10516;BCM;George Enescu Bacau International;RO;;46.52194444;26.91027778;0
1051707;10517;BCN;Barcelona Airport;ES;;41.295;2.08777778;0
1051801;10518;BCS;Southern Seaplane;US;Louisiana;29.86611111;-90.02222222;0
1051901;10519;BCT;Boca Raton Public;US;Florida;26.37083333;-80.10833333;0
1052001;10520;BCY;Bulchi Airport;ET;;6.29222222;36.88722222;0
1052103;10521;BDA;L. F. Wade International;BM;;32.36416667;-64.67861111;0
1052202;10522;BDB;Bundaberg Airport;AU;;-24.90388889;152.3186111;0
1052303;10523;BDE;Baudette International;US;Minnesota;48.73027778;-94.61111111;0
1052402;10524;BDG;Blanding Municipal;US;Utah;37.58333333;-109.4833333;0
1052502;10525;BDH;Bandar Lengeh Airport;IR;;26.53222222;54.82472222;0
1052602;10526;BDI;Bird Island Airport;SC;;-3.72416667;55.20555556;0
1052701;10527;BDJ;Syamsudin Noor;ID;;-3.44222222;114.7627778;0
1052805;10528;BDK;Bondoukou/Soko;CI;;8.0175;-2.76222222;0
1052906;10529;BDL;Bradley International;US;Connecticut;41.93916667;-72.68333333;0
1053005;10530;BDM;Bandirma Airport;TR;;40.31805556;27.97777778;0
1053102;10531;BDN;Talhar;PK;;24.84194444;68.83833333;0
1053206;10532;BDO;Husein Sastranegara;ID;;-6.90055556;107.5733333;0
1053302;10533;BDP;Chandragadhi;NP;;26.57083333;88.07888889;0
1053403;10534;BDQ;Vadodara Airport;IN;;22.33611111;73.22638889;0
1053502;10535;BDR;Igor I Sikorsky Memorial;US;Connecticut;41.16333333;-73.12611111;0
1053603;10536;BDS;Brindisi Airport;IT;;40.65833333;17.94694444;0
1053705;10537;BDU;Bardufoss Airport;NO;;69.05583333;18.53888889;0
1053802;10538;BDY;Bandon State;US;Oregon;43.08638889;-124.4077778;0
1053906;10539;BEB;Benbecula Airport;GB;;57.48111111;-7.36305556;0
1054005;10540;BED;Laurence G Hanscom Field;US;Massachusetts;42.47;-71.28888889;0
1054105;10541;BEF;Bluefields Airport;NI;;11.99083333;-83.77416667;0
1054206;10542;BEG;Beograd;RS;;44.81833333;20.30916667;0
1054306;10543;BEH;Southwest Michigan Regional;US;Michigan;42.12833333;-86.425;0
1054402;10544;BEI;Beica Airport;ET;;9.39138889;34.51944444;1
1054505;10545;BEL;Val de Cans International;BR;;-1.37916667;-48.47611111;0
1054706;10547;BEN;Benina International;LY;;32.09694444;20.26944444;0
1054806;10548;BEO;Lake Macquarie;AU;;-33.06583333;151.6463889;0
1054902;10549;BER;Berlin Metropolitan Area;DE;;52.51166667;13.40138889;0
1055007;10550;BES;Brest Bretagne;FR;;48.44944444;-4.41694444;0
1055102;10551;BET;Bethel Airport;US;Alaska;60.77861111;-161.8372222;0
1055201;10552;BEU;Bedourie North;AU;;-24.23;139.445;0
1055305;10553;BEV;Teyman;IL;;31.28666667;34.72305556;0
1055402;10554;BEW;Beira Airport;MZ;;-19.79638889;34.90777778;0
1055505;10555;BEY;Rafic Hariri International;LB;;33.81916667;35.49;0
1055601;10556;BFB;Blue Fox Bay Airport;US;Alaska;58.18333333;-152.1333333;0
1055702;10557;BFD;Bradford Regional;US;Pennsylvania;41.80305556;-78.64;0
1055803;10558;BFF;Western Neb. Regional/William B. Heilig Field;US;Nebraska;41.87416667;-103.5955556;0
1055902;10559;BFI;Boeing Field/King County International;US;Washington;47.53;-122.3019444;0
1056002;10560;BFK;Buckley AFB;US;Colorado;39.70166667;-104.7516667;0
1056103;10561;BFL;Meadows Field;US;California;35.43388889;-119.0577778;0
1056202;10562;BFM;Mobile Downtown;US;Alabama;30.62666667;-88.06805556;0
1056305;10563;BFN;Bram Fischer International;ZA;;-29.09277778;26.3025;0
1056403;10564;BFO;Buffalo Range Airport;ZW;;-21.00805556;31.57861111;0
1056502;10565;BFP;Beaver County;US;Pennsylvania;40.7725;-80.39138889;0
1056601;10566;BFQ;Bahia de Pinas Airport;PA;;7.58333333;-78.2;0
1056702;10567;BFR;Virgil I Grissom Municipal;US;Indiana;38.84;-86.44527778;0
1056805;10568;BFS;Belfast Aldergrove;GB;;54.6575;-6.21583333;0
1056902;10569;BFT;Beaufort County;US;South Carolina;32.41222222;-80.63444444;0
1057005;10570;BGA;Palonegro;CO;;7.12638889;-73.18472222;0
1057102;10571;BGB;Booue Airport;GA;;-0.1075;11.94361111;0
1057202;10572;BGD;Hutchinson County;US;Texas;35.70083333;-101.3936111;0
1057302;10573;BGE;Decatur County Industrial Air Park;US;Georgia;30.97166667;-84.63694444;0
1057402;10574;BGF;Bangui-M'Poko;CF;;4.39944444;18.51944444;0
1057505;10575;BGI;Grantley Adams International;BB;;13.07472222;-59.49222222;0
1057607;10576;BGL;Baglung Airport;NP;;28.21361111;83.66611111;0
1057705;10577;BGM;Greater Binghamton/Edwin A. Link Field;US;New York;42.20833333;-75.97972222;0
1057803;10578;BGN;Bruggen Airport;DE;;51.19972222;6.13222222;0
1057902;10579;BGO;Flesland;NO;;60.29333333;5.21805556;0
1058005;10580;BGQ;Big Lake Airport;US;Alaska;61.53472222;-149.8125;0
1058102;10581;BGR;Bangor International;US;Maine;44.8075;-68.82805556;0
1058202;10582;BGS;Big Spring McMahon-Wrinkle;US;Texas;32.2125;-101.5216667;0
1058305;10583;BGT;Bagdad Airport;US;Arizona;34.59277778;-113.1719444;0
1058404;10584;BGU;Bangassou Airport;CF;;4.78583333;22.7825;0
1058502;10585;BGW;Al Muthana;IQ;;33.33277778;44.36388889;0
1058605;10586;BGX;Comandante Gustavo Kraemer;BR;;-31.39055556;-54.11194444;0
1058705;10587;BGY;Bergamo Orio Al Serio;IT;;45.66888889;9.70416667;0
1058801;10588;BH1;Isa AB;BH;;25.91833333;50.59055556;0
1058903;10589;BHB;Hancock County-Bar Harbor;US;Maine;44.44972222;-68.36138889;0
1059006;10590;IFP;Laughlin/Bullhead International;US;Arizona;35.15472222;-114.5594444;0
1059102;10591;BHD;Belfast City;GB;;54.61805556;-5.8725;0
1059202;10592;BHE;Woodbourne;NZ;;-41.51777778;173.8694444;0
1059305;10593;BHG;Araslaya;HN;;15.73555556;-84.54277778;0
1059402;10594;BHH;Bisha Airport;SA;;19.98416667;42.62305556;0
1059502;10595;BHI;Comandante Espora;AR;;-38.72555556;-62.16888889;0
1059605;10596;BHJ;Bhuj Airport;IN;;23.28805556;69.67027778;0
1059703;10597;BHK;Bukhara Airport;UZ;;39.77527778;64.48222222;0
1059804;10598;BHL;Bahia de Los Angeles North;MX;;28.97666667;-113.5602778;0
1059904;10599;BHM;Birmingham-Shuttlesworth International;US;Alabama;33.56388889;-86.75222222;0
1060006;10600;BHN;Beihan Airport;YE;;14.78222222;45.71972222;0
1060102;10601;BHO;Raja Bhoj;IN;;23.28888889;77.33;0
1060202;10602;BHQ;Broken Hill Airport;AU;;-32.00138889;141.4716667;0
1060305;10603;BHR;Bharatpur Airport;NP;;27.67694444;84.42833333;0
1060402;10604;BHS;Bathurst Airport;AU;;-33.40944444;149.6519444;0
1060501;10605;BHT;Brighton Downs Airport;AU;;-23.35;141.55;0
1060602;10606;BHU;Bhavnagar Airport;IN;;21.75222222;72.18555556;0
1060706;10607;BHV;Bahawalpur International;PK;;29.34694444;71.71138889;0
1060805;10608;BHX;Birmingham Airport;GB;;52.45416667;-1.74861111;0
1060901;10609;BHY;Beihai Airport;CN;;21.53944444;109.2938889;0
1061001;10610;BHZ;Belo Horizonte Metropolitan Area;BR;;-19.91666667;-43.93333333;0
1061106;10611;BIA;Bastia Poretta;FR;;42.5525;9.48361111;0
1061201;10612;BIC;Big Creek Airport;US;Alaska;57.66666667;-157.5833333;0
1061302;10613;BID;Block Island State;US;Rhode Island;41.16805556;-71.57777778;0
1061402;10614;BIE;Beatrice Municipal;US;Nebraska;40.30138889;-96.75416667;0
1061502;10615;BIF;Biggs AAF;US;Texas;31.84944444;-106.38;0
1061602;10616;BIG;Allen AAF;US;Alaska;63.99472222;-145.7202778;0
1061705;10617;BIH;Bishop Airport;US;California;37.37305556;-118.3636111;0
1061801;10618;BII;Bikini Atoll Airport;MH;;11.52166667;165.5644444;0
1061901;10619;BIK;Manuhua;ID;;-1.18666667;136.0855556;0
1062003;10620;BIL;Billings Logan International;US;Montana;45.80777778;-108.5436111;0
1062101;10621;BIM;Bimini International;BS;;25.69944444;-79.26555556;0
1062202;10622;BIN;Bamyan Airport;AF;;34.80944444;67.81888889;0
1062302;10623;BIO;Bilbao Airport;ES;;43.30111111;-2.91055556;0
1062401;10624;BIP;Bulimba Airport;AU;;-16.88305556;143.4813889;0
1062506;10625;BIQ;Biarritz Pays Basque;FR;;43.46833333;-1.52333333;0
1062605;10626;BIR;Biratnagar Airport;NP;;26.48222222;87.26361111;0
1062702;10627;BIS;Bismarck Municipal;US;North Dakota;46.77277778;-100.7458333;0
1062802;10628;BIV;Bria Airport;CF;;6.52833333;21.98888889;0
1062902;10629;BIX;Keesler AFB;US;Mississippi;30.41055556;-88.92444444;0
1063004;10630;BJC;Rocky Mountain Metro;US;Colorado;39.90888889;-105.1172222;0
1063104;10631;BJI;Bemidji Regional;US;Minnesota;47.51083333;-94.93472222;0
1063203;10632;BJJ;Wayne County;US;Ohio;40.87472222;-81.88833333;0
1063302;10633;BJL;Banjul International;GM;;13.33777778;-16.65222222;0
1063402;10634;BJM;Bujumbura International;BI;;-3.32388889;29.31861111;0
1063506;10635;BJR;Bahir Dar Ginbot Haya International;ET;;11.60611111;37.31944444;0
1063606;10636;BJU;Bajura Airport;NP;;29.50305556;81.66833333;0
1063702;10637;BJV;Imsik;TR;;37.14;27.66944444;0
1063802;10638;BJX;Guanajuato International;MX;;20.99333333;-101.4808333;0
1063906;10639;BJZ;Badajoz Airport;ES;;38.89138889;-6.82138889;0
1064002;10640;BKC;Buckland Airport;US;Alaska;65.98166667;-161.1491667;0
1064102;10641;BKE;Baker City Municipal;US;Oregon;44.83722222;-117.8091667;0
1064201;10642;BKF;Brooks Lake Airport;US;Alaska;58.6;-156.2333333;0
1064301;10643;BKG;Branson Airport;US;Missouri;36.53194444;-93.20055556;0
1064402;10644;BKH;Barking Sands PMRF;US;Hawaii;22.02277778;-159.785;0
1064505;10645;BKI;Kota Kinabalu International;MY;;5.93388889;116.0497222;0
1064602;10646;DMK;Don Mueang International;TH;;13.9125;100.6066667;0
1064705;10647;BKL;Burke Lakefront;US;Ohio;41.51777778;-81.68277778;0
1064805;10648;BKM;Bakelalan Airport;MY;;3.97361111;115.6172222;0
1065007;10650;BKO;Modibo Keita;ML;;12.53777778;-7.94333333;0
1065102;10651;BKQ;Blackall Airport;AU;;-24.42777778;145.4286111;0
1065205;10652;BKS;Fatmawati Soekarno;ID;;-3.86111111;102.3394444;0
1065306;10653;BKU;Betioky Airport;MG;;-23.73361111;44.39083333;0
1065402;10654;BKW;Raleigh County Memorial;US;West Virginia;37.78722222;-81.12416667;0
1065505;10655;BKX;Brookings Regional;US;South Dakota;44.30444444;-96.81888889;0
1065601;10656;BKY;Bukavu Kavumu;CD;;-2.30888889;28.80888889;0
1065705;10657;BKZ;Bukoba Airport;TZ;;-1.33138889;31.82055556;0
1065805;10658;BLA;General Jose Antonio Anzoategui International;VE;;10.10722222;-64.68916667;0
1065901;10659;BLB;Albrook AFB;PA;;8.97083333;-79.55638889;1
1066001;10660;BLC;Bali Airport;CM;;5.89166667;10.025;0
1066106;10661;BLD;Boulder City Municipal;US;Nevada;35.94722222;-114.8611111;0
1066203;10662;BLE;Borlange Airport;SE;;60.42222222;15.51527778;0
1066303;10663;BLF;Mercer County;US;West Virginia;37.29583333;-81.2075;0
1066402;10664;BLG;Belaga Airport;MY;;2.63611111;113.7605556;0
1066502;10665;BLH;Blythe Airport;US;California;33.61916667;-114.7169444;0
1066602;10666;BLI;Bellingham International;US;Washington;48.79277778;-122.5375;0
1066701;10667;BLJ;Mostepha Ben Boulaid;DZ;;35.75194444;6.30944444;0
1066806;10668;BLK;Blackpool Airport;GB;;53.77194444;-3.03833333;0
1066903;10669;BLL;Billund Airport;DK;;55.74055556;9.15694444;0
1067002;10670;BLM;Monmouth Executive;US;New Jersey;40.18666667;-74.12444444;0
1067102;10671;BLO;Blonduos Airport;IS;;65.645;-20.2875;0
1067204;10672;BLP;Bellavista 1;PE;;-7.06027778;-76.58222222;0
1067302;10673;BLQ;Bologna Airport;IT;;44.53555556;11.28861111;0
1067407;10674;BLR;Kempegowda International;IN;;13.19833333;77.70638889;0
1067502;10675;BLT;Blackwater Airport;AU;;-23.60305556;148.8069444;0
1067602;10676;BLV;Scott AFB/MidAmerica;US;Illinois;38.54527778;-89.83527778;0
1067702;10677;BLZ;Chileka International;MW;;-15.67888889;34.97388889;0
1067804;10678;BMA;Bromma;SE;;59.35444444;17.94166667;0
1067903;10679;BMB;Bumba Airport;CD;;2.18333333;22.47944444;0
1068006;10680;BMC;Brigham City Regional;US;Utah;41.55444444;-112.0622222;0
1068103;10681;BMD;Belo Sur Tsiribihina;MG;;-19.68666667;44.5425;0
1068205;10682;BME;Broome International;AU;;-17.94944444;122.2277778;0
1068303;10683;BMG;Monroe County;US;Indiana;39.14611111;-86.61666667;0
1068404;10684;BMH;Bomai Airport;PG;;-6.37472222;144.6355556;0
1068503;10685;BMI;Central Il Regional Airport at Bloomington;US;Illinois;40.47722222;-88.91583333;0
1068604;10686;BMJ;Baramita Airport;GY;;7.37083333;-60.48972222;0
1068702;10687;BML;Berlin Regional;US;New Hampshire;44.57527778;-71.17583333;0
1068802;10688;BMM;Bitam Airport;GA;;2.07722222;11.49222222;0
1068903;10689;BMO;Banmaw;MM;;24.27083333;97.24722222;0
1069002;10690;BMP;Brampton Island Airport;AU;;-20.80333333;149.27;0
1069106;10691;BMW;Bordj Mokhtar;DZ;;21.37833333;0.93027778;0
1069202;10692;BMX;Big Mountain AFS;US;Alaska;59.36111111;-155.2588889;0
1069302;10693;BNA;Nashville International;US;Tennessee;36.12444444;-86.67805556;0
1069402;10694;BNB;Boende Airport;CD;;-0.28666667;20.88333333;0
1069502;10695;BND;Bandar Abbas International;IR;;27.21833333;56.37777778;0
1069602;10696;BNE;Brisbane International;AU;;-27.38416667;153.1175;0
1069701;10697;BNF;Warm Spring Bay Seaplane Base;US;Alaska;57.08916667;-134.8313889;0
1069805;10698;BNG;Banning Municipal;US;California;33.9225;-116.8508333;0
1069901;10699;BNI;Benin City Airport;NG;;6.32388889;5.60166667;0
1070002;10700;BNK;Ballina Byron Gateway;AU;;-28.83388889;153.5625;0
1070105;10701;BNL;Barnwell Regional;US;South Carolina;33.25777778;-81.38833333;0
1070202;10702;BNN;Bronnoy;NO;;65.46111111;12.2175;0
1070302;10703;BNO;Burns Municipal;US;Oregon;43.59194444;-118.9555556;0
1070402;10704;BNS;Barinas Airport;VE;;8.61972222;-70.22111111;0
1070501;10705;BNX;Banja Luka Airport;BA;;44.94138889;17.2975;0
1070601;10706;BNZ;Banz Airport;PG;;-5.80833333;144.6113889;0
1070702;10707;BOA;Boma Airport;CD;;-5.85388889;13.06388889;1
1070802;10708;BOB;Bora Bora Motu Mute;PF;;-16.44444444;-151.7513889;0
1070903;10709;BOC;Jose Ezequiel Hall;PA;;9.34083333;-82.25083333;0
1071006;10710;BOD;Bordeaux Merignac;FR;;44.82861111;-0.71527778;0
1071102;10711;BOG;El Dorado International;CO;;4.70166667;-74.14694444;0
1071202;10712;BOH;Bournemouth Airport;GB;;50.78;-1.8425;0
1071302;10713;BOI;Boise Air Terminal;US;Idaho;43.56444444;-116.2227778;0
1071402;10714;BOJ;Burgas Airport;BG;;42.57;27.51527778;0
1071503;10715;BOK;Brookings Airport;US;Oregon;42.07388889;-124.2897222;0
1071604;10716;BOM;Chhatrapati Shivaji Maharaj International;IN;;19.08861111;72.86777778;0
1071706;10717;BON;Flamingo International;BQ;;12.13083333;-68.2675;0
1071803;10718;BOO;Bodo Airport;NO;;67.26861111;14.35888889;0
1071901;10719;BOQ;Boku Airport;PG;;-6.54305556;155.3430556;0
1072002;10720;BOR;Fontaine;FR;;47.65638889;7.01166667;1
1072102;10721;BOS;Logan International;US;Massachusetts;42.36305556;-71.00638889;0
1072203;10722;BOW;Bartow Executive;US;Florida;27.94333333;-81.78333333;0
1072303;10723;BOX;Borroloola Airport;AU;;-16.07527778;136.3022222;0
1072403;10724;BOY;Bobo Dioulasso Airport;BF;;11.15972222;-4.33111111;0
1072502;10725;BPH;Bislig Airport;PH;;8.19527778;126.3213889;0
1072604;10726;BPN;Sultan Aji Muhammad Sulaiman Sepinggan;ID;;-1.26833333;116.8944444;0
1072702;10727;BPS;Porto Seguro Airport;BR;;-16.43861111;-39.08083333;0
1072804;10728;BPT;Jack Brooks Regional;US;Texas;29.95083333;-94.02055556;0
1072902;10729;BQA;Baler Airport;PH;;15.72972222;121.5002778;0
1073001;10730;BQH;Biggin Hill;GB;;51.33083333;0.0325;0
1073103;10731;BQK;Brunswick Golden Isles;US;Georgia;31.25916667;-81.46638889;0
1073203;10732;BQN;Rafael Hernandez;US;Puerto Rico;18.49472222;-67.12944444;0
1073305;10733;BQS;Ignatyevo;RU;;50.42555556;127.4125;0
1073404;10734;BQU;J. F. Mitchell;VC;;12.98861111;-61.26222222;0
1073502;10735;BQV;Bartlett Cove Seaplane Base;US;Alaska;58.45527778;-135.8852778;0
1073603;10736;BR1;Juvenal Loureiro Cardoso;BR;;-26.21722222;-52.69444444;0
1073705;10737;BRA;Barreiras Airport;BR;;-12.07916667;-45.00944444;0
1073805;10738;BRC;San Carlos de Bariloche Airport;AR;;-41.15111111;-71.15777778;0
1073907;10739;BRD;Brainerd Lakes Regional;US;Minnesota;46.40416667;-94.13361111;0
1074004;10740;BRE;Bremen Airport;DE;;53.04694444;8.78972222;0
1074101;10741;BRG;Whitesburg Municipal;US;Kentucky;37.11666667;-82.81666667;0
1074204;10742;BRI;Bari Airport;IT;;41.1375;16.75722222;0
1074303;10743;BRK;Bourke Airport;AU;;-30.03916667;145.9516667;0
1074402;10744;BRL;Southeast Iowa Regional;US;Iowa;40.78333333;-91.12555556;0
1074506;10745;BRM;Barquisimeto International;VE;;10.0425;-69.35861111;0
1074602;10746;BRN;Bern/Belp;CH;;46.91333333;7.49805556;0
1074706;10747;BRO;Brownsville South Padre Island International;US;Texas;25.90611111;-97.42611111;0
1074803;10748;BRQ;Turany;CZ;;49.15138889;16.69444444;0
1074905;10749;BRR;Barra Airport;GB;;57.02361111;-7.44166667;1
1075004;10750;BRS;Bristol Airport;GB;;51.38277778;-2.71916667;0
1075102;10751;BRT;Bathurst Island Airport;AU;;-11.76916667;130.6197222;0
1075205;10752;BRU;Brussels National;BE;;50.9;4.49277778;0
1075304;10753;BRV;Bremerhaven Airport;DE;;53.50694444;8.57277778;0
1075405;10754;BRW;Wiley Post/Will Rogers Memorial;US;Alaska;71.28472222;-156.7686111;0
1075501;10755;BRX;Barahona Habanero;DO;;18.25277778;-71.12;0
1075601;10756;BRY;Samuels Field;US;Kentucky;37.81444444;-85.49972222;0
1075706;10757;BSA;Bosaso Airport;SO;;11.27638889;49.14888889;0
1075806;10758;BSB;Presidente Juscelino Kubitschek International;BR;;-15.87111111;-47.91861111;0
1075906;10759;BSD;Baoshan Airport;CN;;25.05194444;99.1675;0
1076005;10760;BSG;Bata Airport;GQ;;1.9025;9.80583333;0
1076102;10761;BSK;Mohamed Khider;DZ;;34.79333333;5.73833333;0
1076205;10762;BSL;EuroAirport;FR;;47.59;7.52888889;0
1076301;10763;BSM;Bergstrom AFB;US;Texas;30.19472222;-97.67666667;1
1076402;10764;BSO;Basco Airport;PH;;20.45138889;121.9802778;0
1076502;10765;BSQ;Bisbee Municipal;US;Arizona;31.36388889;-109.8830556;0
1076604;10766;BSR;Basrah International;IQ;;30.54888889;47.6625;0
1076705;10767;BSS;Balsas Airport;BR;;-7.52527778;-46.05333333;0
1076803;10768;BSU;Basankusu Airport;CD;;1.22472222;19.78805556;0
1076902;10769;BSW;Boswell Bay Airport;US;Alaska;60.42305556;-146.1458333;0
1077003;10770;A2K;Bartletts Airport;US;Alaska;58.23305556;-157.3663889;1
1077105;10771;BTA;Bertoua Airport;CM;;4.55;13.72583333;0
1077205;10772;BTC;Batticaloa Airport;LK;;7.70527778;81.67722222;0
1077305;10773;BTE;Bonthe Airport;SL;;7.53194444;-12.51861111;0
1077401;10774;BTH;Batu Besar Airport;ID;;1.13055556;104.1341667;0
1077507;10775;BTI;Barter Island Airport;US;Alaska;70.11305556;-143.6536111;0
1077606;10776;BTJ;Sultan Iskandar Muda;ID;;5.52583333;95.41972222;0
1077706;10777;BTK;Bratsk Airport;RU;;56.37055556;101.6983333;0
1077802;10778;BTL;W K Kellogg;US;Michigan;42.30638889;-85.25;0
1077902;10779;BTM;Bert Mooney;US;Montana;45.95472222;-112.4975;0
1078003;10780;BTP;Pittsburgh Butler Regional;US;Pennsylvania;40.77666667;-79.95111111;0
1078105;10781;BTR;Baton Rouge Metropolitan/Ryan Field;US;Louisiana;30.53305556;-91.15;0
1078207;10782;BTS;M R Stefanik;SK;;48.17;17.21277778;0
1078302;10783;BTT;Bettles Airport;US;Alaska;66.91388889;-151.5291667;0
1078405;10784;BTU;Bintulu Airport;MY;;3.12416667;113.0197222;0
1078502;10785;BTV;Burlington International;US;Vermont;44.47194444;-73.15333333;0
1078605;10786;BTY;Beatty Airport;US;Nevada;36.86111111;-116.7863889;0
1078702;10787;BTZ;Bursa Airport;TR;;40.23333333;29.00916667;0
1078803;10788;BUA;Buka;PG;;-5.42222222;154.6727778;0
1078903;10789;BUC;Burketown Airport;AU;;-17.75055556;139.5352778;0
1079008;10790;BUD;Budapest Liszt Ferenc International;HU;;47.43694444;19.25555556;0
1079101;10791;BUE;Buenos Aires Metropolitan Area;AR;;-34.68944444;-58.475;0
1079206;10792;BUF;Buffalo Niagara International;US;New York;42.94055556;-78.73055556;0
1079301;10793;BUG;17 de Setembro;AO;;-12.60638889;13.40555556;0
1079401;10794;BUH;Bucharest Metropolitan Area;RO;;44.43305556;26.1;0
1079503;10795;BUL;Bulolo Airport;PG;;-7.21583333;146.6494444;0
1079604;10796;BUM;Butler Memorial;US;Missouri;38.28972222;-94.34027778;0
1079702;10797;BUN;Gerardo Tobar Lopez;CO;;3.81944444;-76.99;0
1079805;10798;BUO;Burao Airport;SO;;9.52944444;45.55666667;0
1079903;10799;BUQ;J. M. Nkomo International;ZW;;-20.01527778;28.62277778;0
1080003;10800;BUR;Bob Hope;US;California;34.20055556;-118.3586111;0
1080106;10801;BUS;Batumi Airport;GE;;41.61027778;41.59944444;0
1080201;10802;BUU;Buyo Airport;CI;;6.26666667;-7.05;0
1080302;10803;BUV;Bella Union Airport;UY;;-30.31972222;-57.55888889;0
1080401;10804;BUX;Bunia Airport;CD;;1.57166667;30.21277778;0
1080502;10805;BUY;Bunbury Airport;AU;;-33.37833333;115.6766667;0
1080602;10806;BUZ;Bushehr Airport;IR;;28.94472222;50.83472222;0
1080706;10807;BVA;Beauvais Tille;FR;;49.45611111;2.11888889;0
1080802;10808;BVB;Atlas Brasil Cantanhede;BR;;2.84638889;-60.69;0
1080901;10809;BVD;Beaver Inlet Seaport;US;Alaska;53.8325;-166.3025;0
1081002;10810;BVI;Birdsville Airport;AU;;-25.8975;139.3475;0
1081106;10811;BVO;Bartlesville Municipal;US;Oklahoma;36.76333333;-96.01111111;0
1081202;10812;BVR;Beaver Island;US;Michigan;45.69222222;-85.56666667;0
1081401;10814;BVX;Batesville Regional;US;Arkansas;35.72611111;-91.6475;0
1081505;10815;BVY;Beverly Regional;US;Massachusetts;42.58416667;-70.91611111;0
1081605;10816;BWA;Gautam Buddha;NP;;27.50583333;83.41638889;0
1081702;10817;BWD;Brownwood Regional;US;Texas;31.79361111;-98.95638889;0
1081807;10818;BWE;Braunschweig/Wolfsburg;DE;;52.31944444;10.55888889;0
1081902;10819;BWG;Bowling Green-Warren County Regional;US;Kentucky;36.96444444;-86.41972222;0
1082005;10820;BWH;Butterworth Airport;MY;;5.4675;100.3916667;0
1082106;10821;BWI;Baltimore/Washington International Thurgood Marshall;US;Maryland;39.17583333;-76.66888889;0
1082202;10822;BWJ;Bawan Airport;PG;;-6.39666667;146.8819444;1
1082302;10823;BWM;Bowman Municipal;US;North Dakota;46.18694444;-103.4280556;0
1082402;10824;BWN;Brunei International;BN;;4.94416667;114.9283333;0
1082502;10825;BWS;Blaine Municipal;US;Washington;48.99;-122.7325;1
1082603;10826;BWT;Wynyard;AU;;-40.99888889;145.7311111;0
1082701;10827;BWY;RAF Bentwaters;GB;;52.125;1.43333333;1
1082801;10828;BXC;Sheraton Inn Heliport;US;Massachusetts;42.48472222;-71.54444444;0
1082903;10829;BXD;Bade Airport;ID;;-7.17611111;139.5830556;0
1083002;10830;BXE;Bakel Airport;SN;;14.84722222;-12.46833333;0
1083202;10832;BXS;Borrego Valley;US;California;33.25916667;-116.3208333;0
1083301;10833;BXU;Bancasi;PH;;8.95138889;125.4838889;0
1083402;10834;BYA;Boundary Airport;US;Alaska;64.07833333;-141.1133333;0
1083503;10835;BYC;Yacuiba Airport;BO;;-21.96083333;-63.65166667;0
1083601;10836;RKH;Rock Hill/York County/Bryant Field;US;South Carolina;34.98777778;-81.05722222;0
1083702;10837;BYG;Johnson County;US;Wyoming;44.38111111;-106.7216667;0
1083803;10838;BYH;Arkansas International;US;Arkansas;35.96444444;-89.94388889;0
1083902;10839;BYI;Burley Municipal;US;Idaho;42.5425;-113.7716667;0
1084002;10840;BYK;Bouake Airport;CI;;7.73888889;-5.07388889;0
1084101;10841;MI5;Boyne Mountain;US;Michigan;45.16583333;-84.92416667;0
1084205;10842;BYT;Bantry Airport;IE;;51.67722222;-9.48694444;0
1084303;10843;BYU;Bayreuth Airport;DE;;49.98472222;11.64;0
1084402;10844;BYW;Blakely Island Airport;US;Washington;48.57888889;-122.8263889;0
1084502;10845;BZA;Bonanza Airport;NI;;14.03305556;-84.62444444;0
1084605;10846;BZE;Philip S. W. Goldson International;BZ;;17.54;-88.30472222;0
1084703;10847;BZG;Bydgoszcz Airport;PL;;53.09666667;17.97777778;0
1084805;10848;BZI;Balikesir Airport;TR;;39.61916667;27.92611111;0
1084907;10849;BZN;Bozeman Yellowstone International;US;Montana;45.77722222;-111.1502778;0
1085002;10850;BZO;Bolzano Airport;IT;;46.46027778;11.32638889;0
1085105;10851;BZR;Beziers Vias;FR;;43.32333333;3.35472222;0
1085201;10852;BZS;Buzzards Point Seaplane Base;US;District of Columbia;38.86333333;-77.01333333;1
1085301;10853;BZT;Eagle Air Park;US;Texas;28.98222222;-95.57972222;0
1085406;10854;BZV;Maya Maya;CG;;-4.24916667;15.25305556;0
1085605;10856;BZZ;Brize Norton Airport;GB;;51.75;-1.58305556;0
1085702;10857;C01;Camarillo Airport;US;California;34.21361111;-119.0944444;0
1085802;10858;C02;Bakersfield Municipal;US;California;35.32472222;-118.9961111;0
1085901;10859;CA1;Koala Mine Airport;CA;Northwest Territories;64.69;-110.62;0
1086005;10860;CA2;Lake Simcoe Airport;CA;Ontario;44.48611111;-79.55555556;0
1086104;10861;CA3;Thetford Mines Airport;CA;Quebec;46.05222222;-71.2575;0
1086204;10862;CA4;Pelee Island Airport;CA;Ontario;41.7775;-82.67805556;0
1086302;10863;CA5;Calgary Springbank;CA;Alberta;51.10527778;-114.3713889;0
1086506;10865;CAB;Cabinda Airport;AO;;-5.59722222;12.18833333;0
1086606;10866;CAC;Coronel Adalberto Mendes Da Silva;BR;;-25.00027778;-53.50138889;0
1086702;10867;CAD;Wexford County;US;Michigan;44.27527778;-85.41888889;0
1086803;10868;CAE;Columbia Metropolitan;US;South Carolina;33.93888889;-81.11944444;0
1086902;10869;CAF;Carauari Airport;BR;;-4.87138889;-66.8975;0
1087002;10870;CAG;Elmas;IT;;39.25138889;9.05416667;0
1087103;10871;CAH;Ca Mau Airport;VN;;9.1775;105.1777778;0
1087205;10872;CAI;Cairo International;EG;;30.11666667;31.41388889;0
1087302;10873;CAJ;Canaima Airport;VE;;6.23194444;-62.85472222;0
1087402;10874;CAK;Akron-Canton Regional;US;Ohio;40.915;-81.44361111;0
1087506;10875;CAL;Campbeltown Airport;GB;;55.43611111;-5.67833333;0
1087601;10876;CAM;Choreti;BO;;-20.01111111;-63.56111111;0
1087705;10877;CAN;Baiyun International;CN;;23.39083333;113.305;0
1087805;10878;CAP;Cap-Haitien International;HT;;19.72722222;-72.19944444;0
1087905;10879;CAR;Caribou Municipal;US;Maine;46.87166667;-68.01805556;0
1088002;10880;CAS;Anfa;MA;;33.5575;-7.66111111;1
1088104;10881;CAT;New Bight Airport;BS;;24.31527778;-75.4525;0
1088204;10882;CAW;Bartolomeu Lisandro;BR;;-21.69833333;-41.30166667;0
1088302;10883;CAX;Carlisle Airport;GB;;54.9375;-2.80916667;0
1088405;10884;CAY;Cayenne Felix Eboue;GF;;4.82;-52.36111111;0
1088502;10885;CAZ;Cobar Airport;AU;;-31.53833333;145.7938889;0
1088601;10886;CBA;Corner Bay Airport;US;Alaska;57.73777778;-135.1255556;0
1088708;10887;CBB;Jorge Wilstermann International;BO;;-17.42027778;-66.17722222;0
1088803;10888;CBE;Greater Cumberland Regional;US;Maryland;39.61527778;-78.76138889;0
1088902;10889;CBF;Council Bluffs Municipal;US;Iowa;41.26;-95.75861111;0
1089002;10890;CBG;Cambridge Airport;GB;;52.205;0.175;0
1089101;10891;CBH;Bechar/Leger;DZ;;31.64777778;-2.25972222;0
1089201;10892;CBK;Murray;US;Kansas;39.40388889;-101.0466667;0
1089302;10893;CBL;Ciudad Bolivar Airport;VE;;8.12222222;-63.53694444;0
1089402;10894;CBM;Columbus AFB;US;Mississippi;33.64527778;-88.44583333;0
1089502;10895;CBO;Cotabato Airport;PH;;7.16472222;124.2102778;0
1089605;10896;CBQ;Margaret Ekpo International;NG;;4.97611111;8.34722222;0
1089702;10897;CBR;Canberra Airport;AU;;-35.30694444;149.195;0
1089805;10898;CBV;Coban Airport;GT;;15.46916667;-90.40666667;0
1089901;10899;CBY;Canobie Airport;AU;;-19.47861111;140.9261111;0
1090006;10900;CCC;Jardines del Rey International;CU;;22.46083333;-78.32861111;0
1090205;10902;CCF;Carcassonne Salvaza;FR;;43.21611111;2.30583333;0
1090302;10903;CCH;Chile Chico Airport;CL;;-46.58305556;-71.68666667;0
1090406;10904;CCI;Olavo Cecco Rigon;BR;;-27.18055556;-52.05166667;0
1090506;10905;CCJ;Calicut International;IN;;11.13777778;75.95055556;0
1090605;10906;CCK;Cocos Keeling Island;CC;;-12.18861111;96.83055556;0
1090701;10907;CCM;Criciuma;BR;;-28.72388889;-49.42083333;0
1090807;10908;CCN;Chakhcharan Airport;AF;;34.52666667;65.27138889;0
1090905;10909;CCP;Carriel Sur International;CL;;-36.77138889;-73.06222222;0
1091003;10910;CCR;Buchanan Field;US;California;37.98972222;-122.0569444;0
1091106;10911;CCS;Simon Bolivar International;VE;;10.60305556;-66.99027778;0
1091208;10912;CCU;Netaji Subhash Chandra Bose International;IN;;22.65472222;88.44666667;0
1091402;10914;CCX;Caceres Airport;BR;;-16.04361111;-57.63;0
1091504;10915;CCY;Northeast Iowa Regional;US;Iowa;43.0725;-92.61083333;0
1091603;10916;CCZ;Chub Cay Airport;BS;;25.41722222;-77.88083333;0
1091706;10917;CDB;Cold Bay Airport;US;Alaska;55.20583333;-162.7261111;0
1091802;10918;CDC;Cedar City Regional;US;Utah;37.70083333;-113.0988889;0
1091905;10919;CDF;Cortina d'Ampezzo Airport;IT;;46.57777778;12.11361111;0
1092005;10920;CDG;Paris Charles de Gaulle;FR;;49.01277778;2.55;0
1092102;10921;CDH;Harrell Field;US;Arkansas;33.62277778;-92.76333333;0
1092203;10922;CDJ;Conceicao Do Araguaia Airport;BR;;-8.34833333;-49.30138889;0
1092302;10923;CDL;Candle 2;US;Alaska;65.90777778;-161.9263889;0
1092402;10924;CDN;Woodward Field;US;South Carolina;34.28361111;-80.56472222;0
1092502;10925;CDR;Chadron Municipal;US;Nebraska;42.8375;-103.0952778;0
1092603;10926;CDV;Merle K Mudhole Smith;US;Alaska;60.49166667;-145.4775;0
1092702;10927;CDW;Essex County;US;New Jersey;40.87527778;-74.28138889;0
1092802;10928;CEA;Cessna Aircraft Field;US;Kansas;37.64861111;-97.25055556;0
1092901;10929;CEB;Mactan-Cebu International;PH;;10.3075;123.9794444;0
1093002;10930;CEC;Jack McNamara Field;US;California;41.78027778;-124.2366667;0
1093102;10931;CED;Ceduna Airport;AU;;-32.13055556;133.7097222;0
1093302;10933;CEF;Westover ARB Metropolitan;US;Massachusetts;42.19388889;-72.53472222;0
1093402;10934;CEG;Hawarden;GB;;53.17805556;-2.97777778;0
1093502;10935;CEI;Chiang Rai Airport;TH;;19.88555556;99.82555556;0
1093604;10936;CEK;Balandino;RU;;55.30583333;61.50361111;0
1093704;10937;CEL;Cape Eleuthera Airport;BS;;24.78666667;-76.29861111;0
1093802;10938;CEM;Central Airport;US;Alaska;65.57388889;-144.7808333;0
1093902;10939;CEN;Ciudad Obregon International;MX;;27.39277778;-109.8330556;0
1094005;10940;CEO;Waco Kungo Airport;AO;;-11.42638889;15.10138889;0
1094105;10941;CEP;Concepcion Airport;BO;;-16.14333333;-62.02611111;0
1094206;10942;CEQ;Cannes Mandelieu;FR;;43.54666667;6.95388889;0
1094307;10943;CER;Cherbourg Maupertus;FR;;49.65027778;-1.47027778;0
1094405;10944;CET;Cholet Le Pontreau;FR;;47.08222222;-0.87694444;0
1094505;10945;CEU;Oconee County Regional;US;South Carolina;34.67222222;-82.88583333;0
1094603;10946;CEV;Mettel Field;US;Indiana;39.69805556;-85.13111111;0
1094702;10947;CEW;Bob Sikes;US;Florida;30.77888889;-86.52222222;0
1094802;10948;CEX;Chena Hot Springs Airport;US;Alaska;65.05194444;-146.0475;0
1094902;10949;CEY;Kyle-Oakley Field;US;Kentucky;36.66444444;-88.37277778;0
1095002;10950;CEZ;Cortez Municipal;US;Colorado;37.30305556;-108.6280556;0
1095101;10951;CFA;Coffee Point Airport;US;Alaska;58.21666667;-157.5;0
1095205;10952;CFB;Cabo Frio Airport;BR;;-22.92138889;-42.07166667;0
1095306;10953;CFE;Clermont Ferrand Auvergne;FR;;45.78666667;3.17;0
1095405;10954;CFG;Jaime Gonzalez International;CU;;22.14972222;-80.41444444;0
1095501;10955;CFQ;Silver City Airport;CA;Yukon Territory;61.02888889;-138.4075;0
1095605;10956;CFR;Caen Carpiquet;FR;;49.17333333;-0.45;0
1095702;10957;CFS;Coffs Harbour Airport;AU;;-30.32055556;153.1163889;0
1095802;10958;CFT;Greenlee County;US;Arizona;32.95694444;-109.2111111;0
1095905;10959;CFU;Ioannis Kapodistrias International;GR;;39.60194444;19.91222222;0
1096006;10960;CFV;Coffeyville Municipal;US;Kansas;37.09388889;-95.57194444;0
1096101;10961;CGA;Craig Seaplane Base;US;Alaska;55.47916667;-133.1461111;0
1096204;10962;CGB;Marechal Rondon International;BR;;-15.65305556;-56.11666667;0
1096302;10963;CGC;Cape Gloucester Airport;PG;;-5.45277778;148.4236111;1
1096405;10964;CGE;Cambridge Dorchester Regional;US;Maryland;38.53944444;-76.03027778;0
1096503;10965;CGF;Cuyahoga County;US;Ohio;41.56444444;-81.48722222;0
1096602;10966;CGH;Congonhas;BR;;-23.62666667;-46.65527778;0
1096702;10967;CGI;Cape Girardeau Regional;US;Missouri;37.22527778;-89.57083333;0
1096802;10968;CGK;Soekarno-Hatta International;ID;;-6.12583333;106.6563889;0
1096905;10969;CGM;Camiguin Airport;PH;;9.25388889;124.7086111;0
1097008;10970;CGN;Koeln Bonn;DE;;50.86583333;7.13888889;0
1097105;10971;CGO;Xinzheng;CN;;34.51833333;113.84;0
1097201;10972;CGP;Chittagong Airport;BD;;22.2575;91.82555556;0
1097301;10973;CGQ;Dafangshen;CN;;43.90666667;125.1975;1
1097406;10974;CGR;Campo Grande International;BR;;-20.47;-54.67388889;0
1097502;10975;CGS;College Park Airport;US;Maryland;38.98055556;-76.92222222;0
1097601;10976;CGU;Ciudad Guayana Metropolitan Area;VE;;8.28861111;-62.76027778;1
1097701;10977;CGX;Meigs Field;US;Illinois;41.85888889;-87.60833333;0
1097802;10978;CGY;Cagayan de Oro;PH;;8.41555556;124.6111111;0
1097902;10979;CGZ;Casa Grande Municipal;US;Arizona;32.955;-111.7669444;0
1098002;10980;CHA;Lovell Field;US;Tennessee;35.03527778;-85.20361111;0
1098102;10981;CHC;Christchurch International;NZ;;-43.48888889;172.5322222;0
1098202;10982;CHD;Chandler Municipal;US;Arizona;33.26916667;-111.8111111;0
1098301;10983;CHE;Caherciveen Reenroe;IE;;51.95;-10.21666667;0
1098405;10984;CHF;Jinhae;KR;;35.14055556;128.6961111;0
1098505;10985;CHG;Chaoyang Airport;CN;;41.53861111;120.4341667;0
1098601;10986;CHI;Chicago Metropolitan Area;US;Illinois;41.87388889;-87.75555556;0
1098703;10987;CHL;Challis Airport;US;Idaho;44.52361111;-114.2180556;0
1098805;10988;CHM;Teniente Jaime A. de Montreuil Morales;PE;;-9.14972222;-78.52361111;0
1099005;10990;CHO;Charlottesville Albemarle;US;Virginia;38.13972222;-78.45222222;0
1099104;10991;CHP;Circle Hot Springs Airport;US;Alaska;65.48583333;-144.6116667;0
1099203;10992;CHQ;Souda;GR;;35.53138889;24.15111111;0
1099301;10993;CHR;Chateauroux Airport;FR;;46.81666667;1.7;0
1099402;10994;CHS;Charleston AFB/International;US;South Carolina;32.89861111;-80.04055556;0
1099501;10995;CHT;Chatham Islands Airport;NZ;;-43.81194444;-176.4655556;0
1099602;10996;CHU;Chuathbaluk Airport;US;Alaska;61.57916667;-159.2155556;0
1099705;10997;CHW;Jiayuguan;CN;;39.85972222;98.33833333;0
1099801;10998;CHX;Changuinola 1;PA;;9.42611111;-82.56277778;0
1099905;10999;CHZ;Chiloquin State;US;Oregon;42.57944444;-121.8788889;0
1100003;11000;CIA;Ciampino;IT;;41.79916667;12.595;0
1100101;11001;CIB;Catalina;US;California;33.405;-118.4158333;0
1100202;11002;CIC;Chico Municipal;US;California;39.79527778;-121.8583333;0
1100303;11003;CID;The Eastern Iowa;US;Iowa;41.88472222;-91.71083333;0
1100402;11004;CIG;Craig-Moffat;US;Colorado;40.49527778;-107.5216667;0
1100501;11005;CIH;Changzhi Airport;CN;;36.18333333;113.1;0
1100606;11006;CIJ;Cap Av Civ Anibal Arab Fadul International;BO;;-11.04055556;-68.78305556;0
1100702;11007;CIK;Chalkyitsik Airport;US;Alaska;66.645;-143.74;0
1100805;11008;CIL;Council Airport;US;Alaska;64.89666667;-163.7036111;0
1100905;11009;CIN;Arthur N Neu;US;Iowa;42.04666667;-94.78861111;0
1101003;11010;CIP;Chipata Airport;ZM;;-13.55777778;32.58694444;0
1101105;11011;CIR;Cairo Regional;US;Illinois;37.06416667;-89.21944444;0
1101303;11013;CIU;Chippewa County International;US;Michigan;46.25083333;-84.4725;0
1101401;11014;CIV;Chomley Airport;US;Alaska;55.24777778;-132.3236111;0
1101502;11015;CIW;Canouan Airport;VC;;12.70083333;-61.345;0
1101602;11016;CIX;Capt. Jose A. Quinones Gonzales International;PE;;-6.7875;-79.82805556;0
1101702;11017;CIY;Comiso Airport;IT;;36.99527778;14.60777778;0
1101802;11018;CJA;Gen FAP Armando Revoredo Iglesias;PE;;-7.13916667;-78.48944444;0
1101905;11019;CJB;Coimbatore International;IN;;11.03166667;77.04472222;0
1102007;11020;CJC;El Loa;CL;;-22.5;-68.90305556;0
1102101;11021;CJI;Crafton Island Airport;US;Alaska;60.50277778;-147.9402778;0
1102302;11023;CJL;Chitral Airport;PK;;35.88611111;71.8;0
1102402;11024;CJS;Abraham Gonzalez International;MX;;31.63638889;-106.4286111;0
1102502;11025;CJU;Jeju International;KR;;33.51222222;126.4925;0
1102601;11026;CJW;Clay Center Municipal;US;Kansas;39.38722222;-97.15722222;0
1102705;11027;CKB;North Central West Virginia;US;West Virginia;39.29777778;-80.2275;0
1102802;11028;CKD;Crooked Creek Airport;US;Alaska;61.86777778;-158.135;0
1102901;11029;CKE;Pearce Field;US;California;38.93472222;-122.6222222;0
1103005;11030;CKG;Jiangbei;CN;;29.725;106.6516667;0
1103101;11031;CKM;Fletcher Field;US;Mississippi;34.29972222;-90.51222222;0
1103201;11032;CUN;Cancun International;MX;;21.04222222;-86.87361111;0
1103302;11033;CKS;Carajas Airport;BR;;-6.11777778;-50.00333333;0
1103405;11034;CKU;Cordova Municipal;US;Alaska;60.54361111;-145.7258333;0
1103502;11035;CKV;Outlaw Field;US;Tennessee;36.62194444;-87.415;0
1103605;11036;CKX;Chicken Airport;US;Alaska;64.06666667;-141.9513889;0
1103702;11037;CKY;Conakry Airport;GN;;9.57694444;-13.61194444;0
1103806;11038;CLA;Cumilla;BD;;23.43722222;91.18972222;0
1103901;11039;CLB;Castlebar Airport;IE;;53.84861111;-9.28027778;0
1104001;11040;CLC;Clear Lake Metroport;US;Texas;29.55694444;-95.1375;1
1104103;11041;CLD;McClellan-Palomar;US;California;33.12833333;-117.28;0
1104205;11042;CLE;Cleveland-Hopkins International;US;Ohio;41.40944444;-81.85472222;0
1104301;11043;CLF;Clear Mews;US;Alaska;64.30166667;-149.1177778;0
1104402;11044;CLG;New Coalinga Municipal;US;California;36.16222222;-120.2947222;0
1104502;11045;CLH;Coolah Airport;AU;;-31.77333333;149.6094444;0
1104605;11046;CLI;Clintonville Municipal;US;Wisconsin;44.61305556;-88.73083333;0
1104707;11047;CLJ;Avram Iancu;RO;;46.78722222;23.68388889;0
1104802;11048;CLK;Clinton Regional;US;Oklahoma;35.53833333;-98.93277778;0
1104903;11049;CLL;Easterwood Field;US;Texas;30.58805556;-96.3625;0
1105002;11050;CLM;William R. Fairchild International;US;Washington;48.12027778;-123.4997222;0
1105101;11051;CLN;Carolina Airport;BR;;-7.33333333;-47.45;0
1105203;11052;CLO;Alfonso Bonilla Aragon International;CO;;3.54305556;-76.37805556;0
1105302;11053;CLP;Clarks Point Airport;US;Alaska;58.83361111;-158.5294444;0
1105401;11054;CLQ;Colima Airport;MX;;19.27694444;-103.5775;0
1105502;11055;CLR;Cliff Hatfield Memorial;US;California;33.13138889;-115.5213889;0
1105603;11056;CLS;Chehalis Centralia;US;Washington;46.67694444;-122.9827778;0
1105703;11057;CLT;Charlotte Douglas International;US;North Carolina;35.21361111;-80.94916667;0
1105802;11058;CLU;Columbus Municipal;US;Indiana;39.26194444;-85.89638889;0
1105905;11059;CLY;Calvi Sainte Catherine;FR;;42.53083333;8.79305556;0
1106002;11060;CMA;Cunnamulla Airport;AU;;-28.03;145.6222222;0
1106103;11061;CMB;Bandaranaike International Colombo;LK;;7.18111111;79.88388889;0
1106202;11062;CMD;Cootamundra Airport;AU;;-34.62388889;148.0280556;0
1106305;11063;CME;Ciudad del Carmen International;MX;;18.65194444;-91.79944444;0
1106407;11064;CMF;Chambery Aix Les Bains;FR;;45.63805556;5.88027778;0
1106506;11065;CMG;Corumba International;BR;;-19.01138889;-57.67055556;0
1106606;11066;CMH;John Glenn Columbus International;US;Ohio;39.99694444;-82.89222222;0
1106702;11067;CMI;University of Illinois/Willard;US;Illinois;40.03888889;-88.27777778;0
1106801;11068;CMJ;Chi Mei Airport;TW;;23.21222222;119.4163889;0
1106901;11069;CMM;Carmelita Airport;GT;;17.45833333;-90.05333333;0
1107002;11070;CMN;Mohammed V International;MA;;33.3675;-7.59;0
1107107;11071;CMR;Colmar Houssen;FR;;48.10972222;7.35888889;0
1107205;11072;CMT;Cameta Airport;BR;;-2.24694444;-49.56027778;0
1107306;11073;CMU;Chimbu;PG;;-6.02388889;144.9708333;0
1107402;11074;CMV;Coromandel Airport;NZ;;-36.78944444;175.5072222;0
1107505;11075;CMW;Ignacio Agramonte International;CU;;21.42027778;-77.8475;0
1107602;11076;CMX;Houghton County Memorial;US;Michigan;47.16833333;-88.48916667;0
1107702;11077;CNA;Cananea Airport;MX;;30.98305556;-110.2744444;1
1107802;11078;CNB;Coonamble Airport;AU;;-30.98333333;148.3755556;0
1107901;11079;CNC;Coconut Island Airport;AU;;-10.05;143.0666667;0
1108001;11080;CND;Rum Kogalniceanu;RO;;44.35;28.48333333;0
1108108;11081;CNE;Fremont County;US;Colorado;38.42861111;-105.1069444;0
1108201;11082;CNF;Tancredo Neves International;BR;;-19.63361111;-43.96888889;0
1108302;11083;CNK;Blosser Municipal;US;Kansas;39.54916667;-97.65222222;0
1108401;11084;CNL;Sindal Airport;DK;;57.50361111;10.22944444;0
1108502;11085;CNM;Cavern City Air Terminal;US;New Mexico;32.3375;-104.2633333;0
1108602;11086;CNO;Chino Airport;US;California;33.97472222;-117.6363889;0
1108705;11087;CNQ;Corrientes Airport;AR;;-27.445;-58.76166667;0
1108802;11088;CNR;Chanaral Airport;CL;;-26.3325;-70.60722222;0
1108903;11089;CNS;Cairns International;AU;;-16.87916667;145.7497222;0
1109004;11090;CNW;TSTC Waco;US;Texas;31.63777778;-97.07416667;0
1109102;11091;CNX;Chiang Mai International;TH;;18.76833333;98.96277778;0
1109204;11092;CNY;Canyonlands Field;US;Utah;38.7575;-109.7536111;0
1109302;11093;CO3;Marina Municipal;US;California;36.68166667;-121.7616667;0
1109402;11094;CO4;Tolemaida AB;CO;;4.24472222;-74.65;0
1109501;11095;COA;Columbia Airport;US;California;38.03055556;-120.4144444;0
1109602;11096;COC;Comodoro Pierrestegui;AR;;-31.29694444;-57.99666667;0
1109702;11097;COD;Yellowstone Regional;US;Wyoming;44.52027778;-109.0238889;0
1109802;11098;COE;Coeur d'Alene - Pappy Boyington Field;US;Idaho;47.77444444;-116.8194444;0
1109904;11099;COF;Patrick AFB;US;Florida;28.235;-80.61;0
1110001;11100;COG;Mandinga;CO;;5.07916667;-76.66333333;0
1110102;11101;COH;Cooch Behar Airport;IN;;26.33055556;89.46722222;0
1110202;11102;COJ;Coonabarabran Airport;AU;;-31.3325;149.2672222;0
1110302;11103;COK;Cochin International;IN;;10.15111111;76.40055556;0
1110402;11104;COL;Coll;GB;;56.60194444;-6.61777778;0
1110501;11105;COM;Coleman Municipal;US;Texas;31.84111111;-99.40361111;0
1110602;11106;CON;Concord Municipal;US;New Hampshire;43.20277778;-71.50222222;0
1110702;11107;COO;Card Bernardin Gadin de Cadjehoun International;BJ;;6.35722222;2.38444444;0
1110802;11108;COR;Ambrosio L. V. Taravella;AR;;-31.32361111;-64.20805556;0
1110902;11109;COS;City of Colorado Springs Municipal;US;Colorado;38.80583333;-104.7008333;0
1111008;11110;COT;Cotulla-La Salle County;US;Texas;28.45583333;-99.21722222;0
1111105;11111;COU;Columbia Regional;US;Missouri;38.81722222;-92.21805556;0
1111201;11112;COY;Coolawanyah Airport;AU;;-21.8;117.7666667;0
1111302;11113;CPA;Cape Palmas Airport;LR;;4.37916667;-7.69638889;0
1111402;11114;CPB;Capurgana Airport;CO;;8.6325;-77.35027778;0
1111502;11115;CPC;Aviador C. Campos;AR;;-40.07527778;-71.13722222;0
1111602;11116;CPD;Coober Pedy Airport;AU;;-29.04;134.7208333;0
1111702;11117;CPE;Ingeniero Alberto Acuna Ongay International;MX;;19.81666667;-90.50027778;0
1111802;11118;CPH;Kastrup;DK;;55.61805556;12.65583333;0
1111901;11119;CPN;Cape Rodney Airport;PG;;-10.18166667;148.3791667;0
1112001;11120;CPO;Chamonate;CL;;-27.29694444;-70.41388889;1
1112101;11121;CPQ;Viracopos International;BR;;-23.0075;-47.13444444;0
1112205;11122;CPR;Casper/Natrona County International;US;Wyoming;42.90583333;-106.4636111;0
1112301;11123;CPS;Bi-State Parks;US;Missouri;38.57138889;-90.15722222;0
1112406;11124;CPT;Cape Town International;ZA;;-33.965;18.60166667;0
1112502;11125;CPV;Presidente Joao Suassuna;BR;;-7.27;-35.89638889;0
1112605;11126;CPX;Benjamin Rivera Noriega;US;Puerto Rico;18.31305556;-65.30388889;0
1112703;11127;CQF;Calais Marck;FR;;50.96222222;1.95472222;0
1112802;11128;CQL;Glen-Aspen;US;Colorado;39.38888889;-107.16;0
1113003;11130;HCW;Cheraw Municipal/Lynch Bellinger Field;US;South Carolina;34.71277778;-79.95694444;0
1113102;11131;CRA;Craiova Airport;RO;;44.31805556;23.88861111;0
1113202;11132;CRB;Collarenebri Airport;AU;;-29.52194444;148.5822222;0
1113301;11133;CRC;Cartago Airport;CO;;4.76666667;-75.93333333;0
1113402;11134;CRD;Comodoro Rivadavia Airport;AR;;-45.78527778;-67.46555556;0
1113502;11135;CRE;Grand Strand;US;South Carolina;33.81166667;-78.72388889;0
1113604;11136;CRG;Jacksonville Executive at Craig;US;Florida;30.33638889;-81.51444444;0
1113707;11137;CRI;Colonel Hill;BS;;22.74555556;-74.1825;0
1113803;11138;CRK;Diosdado Macapagal International;PH;;15.18777778;120.5630556;0
1113902;11139;CRL;Brussels South;BE;;50.46;4.45305556;0
1114008;11140;CRP;Corpus Christi International;US;Texas;27.77222222;-97.5025;0
1114102;11141;CRQ;Caravelas Airport;BR;;-17.65222222;-39.25305556;0
1114202;11142;CRR;Ceres Airport;AR;;-29.87166667;-61.92694444;0
1114302;11143;CRS;C David Campbell Field-Corsicana Municipal;US;Texas;32.02805556;-96.40055556;0
1114404;11144;CRU;Lauriston;GD;;12.47638889;-61.47277778;0
1114503;11145;CRV;Crotone Airport;IT;;38.99722222;17.08027778;0
1114607;11146;CRW;Yeager;US;West Virginia;38.37611111;-81.59277778;0
1114701;11147;CRX;Roscoe Turner;US;Mississippi;34.915;-88.60361111;0
1114801;11148;CSD;Cresswell Downs Airport;AU;;-17.96666667;135.9166667;0
1114903;11149;CSE;Crested Butte Airpark;US;Colorado;38.85194444;-106.9327778;0
1115005;11150;CSG;Columbus Airport;US;Georgia;32.51638889;-84.93888889;0
1115102;11151;CSI;Casino Airport;AU;;-28.88277778;153.0669444;0
1115203;11152;CSM;Clinton Sherman;US;Oklahoma;35.33972222;-99.20055556;0
1115302;11153;CSN;Carson;US;Nevada;39.19222222;-119.7325;0
1115402;11154;CSP;Cape Spencer C.G. Helipad;US;Alaska;58.19916667;-136.64;0
1115501;11155;CSR;Casuarito Airport;CO;;5.68194444;-67.64083333;0
1115603;11156;CSS;Cassilandia Airport;BR;;-19.14666667;-51.67722222;0
1115701;11157;CST;Castaway Airport;FJ;;-17.75;177.1666667;0
1115801;11158;CSU;Cape Sabine Airport;US;Alaska;69.02694444;-163.8541667;1
1115902;11159;CSV;Crossville Memorial-Whitson Field;US;Tennessee;35.95138889;-85.085;0
1116001;11160;CSX;Huanghua;CN;;28.19166667;113.2197222;0
1116101;11161;CTA;Catania-Fontanarossa;IT;;37.46666667;15.06638889;0
1116204;11162;CTB;Cut Bank International;US;Montana;48.60833333;-112.3761111;0
1116301;11163;CTC;Catamarca Aeroclub;AR;;-28.44833333;-65.77972222;0
1116406;11164;CTG;Rafael Nunez;CO;;10.44194444;-75.51277778;0
1116502;11165;CTH;Chester County G. O. Carlson;US;Pennsylvania;39.97888889;-75.86555556;0
1116602;11166;CTL;Charleville Airport;AU;;-26.41333333;146.2625;0
1116702;11167;CTM;Chetumal International;MX;;18.505;-88.32805556;0
1116802;11168;CTN;Cooktown Airport;AU;;-15.44472222;145.1844444;0
1116901;11169;CTO;Calverton Executive Airpark;US;New York;40.915;-72.79194444;0
1117001;11170;CTS;New Chitose;JP;;42.77527778;141.6922222;0
1117102;11171;CTT;Le Castellet Airport;FR;;43.2525;5.785;0
1117202;11172;CTU;Shuangliu;CN;;30.55638889;103.9452778;0
1117305;11173;CTW;Cottonwood Airport;US;Arizona;34.73;-112.0352778;0
1117404;11174;CTX;Cortland County Chase Field;US;New York;42.59277778;-76.215;0
1117502;11175;CTY;Cross City Airport;US;Florida;29.63555556;-83.10472222;0
1117602;11176;CUB;Jim Hamilton L. B. Owens;US;South Carolina;33.97055556;-80.99527778;0
1117702;11177;CUC;Camilo Daza;CO;;7.9275;-72.51166667;0
1117801;11178;CUE;Cuenca Airport;EC;;-2.86666667;-78.98333333;0
1117903;11179;CUF;Levaldigi;IT;;44.5475;7.62333333;0
1118005;11180;CUL;Culiacan International;MX;;24.765;-107.4752778;0
1118101;11181;CUM;Cumana Airport;VE;;10.44777778;-64.19194444;0
1118302;11183;CUP;General Jose Francisco Bermudez;VE;;10.66;-63.26166667;0
1118402;11184;CUQ;Coen Airport;AU;;-13.76194444;143.1166667;0
1118504;11185;CUR;Hato;CW;;12.18888889;-68.95972222;0
1118602;11186;CUT;Cutral-Co Airport;AR;;-38.93972222;-69.26472222;0
1118701;11187;CUU;General Roberto Fierro Villalobos International;MX;;28.70222222;-105.9630556;0
1118801;11188;CUW;Cube Cove Airport;US;Alaska;57.94166667;-134.75;1
1118902;11189;CUY;Cue Airport;AU;;-27.44666667;117.9186111;0
1119002;11190;CUZ;Teniente Alejandro Velasco Astete International;PE;;-13.53583333;-71.93888889;0
1119101;11191;CVA;Civic Arena H/P;US;Pennsylvania;40.48333333;-80.21666667;0
1119203;11192;CVF;Courchevel Airport;FR;;45.3975;6.635;0
1119302;11193;CVG;Cincinnati/Northern Kentucky International;US;Kentucky;39.04888889;-84.66777778;0
1119403;11194;CVJ;General Mariano Matamoros International;MX;;18.83444444;-99.26166667;0
1119503;11195;CVL;Cape Vogel Airport;PG;;-9.66972222;150.0205556;0
1119602;11196;CVM;General Pedro Jose Mendez International;MX;;23.70333333;-98.95638889;0
1119706;11197;CVN;Clovis Municipal;US;New Mexico;34.42666667;-103.0775;0
1119804;11198;CVO;Corvallis Municipal;US;Oregon;44.4975;-123.2880556;0
1119902;11199;CVQ;Carnarvon Airport;AU;;-24.88055556;113.6722222;0
1120005;11200;CVS;Cannon AFB;US;New Mexico;34.3825;-103.3225;0
1120105;11201;CVT;Coventry Airport;GB;;52.37055556;-1.47861111;0
1120202;11202;CVX;Charlevoix Municipal;US;Michigan;45.30472222;-85.27527778;0
1120302;11203;CWA;Central Wisconsin;US;Wisconsin;44.7775;-89.66666667;0
1120406;11204;CWB;Afonso Pena;BR;;-25.52833333;-49.17583333;0
1120702;11207;CWI;Clinton Municipal;US;Iowa;41.83083333;-90.32888889;0
1120804;11208;CWL;Cardiff Airport;GB;;51.39666667;-3.34333333;0
1120901;11209;CWS;Center Island Airport;US;Washington;48.49;-122.8322222;0
1121002;11210;CWT;Cowra Airport;AU;;-33.84472222;148.6488889;0
1121101;11211;CXA;Caicara Venez.;VE;;7.61666667;-66.16666667;0
1121206;11212;CXB;Cox's Bazar Airport;BD;;21.45527778;91.96361111;0
1121305;11213;CXC;Chitina Airport;US;Alaska;61.58333333;-144.4297222;0
1121402;11214;CXF;Coldfoot Airport;US;Alaska;67.25222222;-150.2038889;0
1121501;11215;CXH;Coal Harbour Seaplane Base;CA;British Columbia;49.3;-123.1333333;0
1121605;11216;CXI;Christmas Island Airport;KI;;1.98638889;-157.35;0
1121703;11217;CXJ;Hugo Cantergiani;BR;;-29.19722222;-51.18777778;0
1121805;11218;CXL;Calexico International;US;California;32.6675;-115.5175;0
1121906;11219;CXO;Conroe North Houston Regional;US;Texas;30.35333333;-95.415;0
1122002;11220;CXP;Tunggul Wulung;ID;;-7.645;109.0338889;0
1122202;11222;CXT;Charters Towers Airport;AU;;-20.04305556;146.2730556;0
1122304;11223;CXY;Cat Cay Airport;BS;;25.55444444;-79.27527778;0
1122406;11224;CYA;Cayes;HT;;18.27111111;-73.78805556;0
1122505;11225;CYB;Charles Kirkconnell International;KY;;19.68694444;-79.88277778;0
1122605;11226;CYC;Caye Chapel Airport;BZ;;17.68361111;-88.045;0
1122706;11227;CYF;Chefornak Airport;US;Alaska;60.13694444;-164.2791667;0
1122907;11229;CYI;Chiayi Airport;TW;;23.46361111;120.3905556;0
1123001;11230;CYM;Chatham Airport;US;Alaska;57.51527778;-134.9444444;0
1123106;11231;CYP;Calbayog Airport;PH;;12.07194444;124.5452778;0
1123205;11232;CYR;Laguna de Los Patos International;UY;;-34.45638889;-57.77055556;0
1123302;11233;CYS;Cheyenne Regional/Jerry Olson Field;US;Wyoming;41.15555556;-104.8105556;0
1123405;11234;CYT;Yakataga;US;Alaska;60.08083333;-142.4955556;0
1123502;11235;CYZ;Cauayan Airport;PH;;16.92972222;121.7533333;0
1123602;11236;CZA;Chichen Itza International;MX;;20.64138889;-88.44611111;0
1123701;11237;CZB;Cruz Alta Airport;BR;;-28.64166667;-53.55833333;0
1123801;11238;CZC;Copper Center 2;US;Alaska;61.94111111;-145.2941667;0
1124005;11240;CZE;Jose Leonardo Chirino;VE;;11.41472222;-69.68166667;0
1124104;11241;CZF;Cape Romanzof LRRS;US;Alaska;61.78027778;-166.0386111;0
1124206;11242;CZH;Ranchito;BZ;;18.38222222;-88.41083333;0
1124301;11243;CZL;Constantine/Ain El Bey;DZ;;36.27694444;6.63;0
1124402;11244;CZM;Cozumel International;MX;;20.5225;-86.92555556;0
1124505;11245;CZN;Chisana Airport;US;Alaska;62.07166667;-142.0494444;0
1124604;11246;CZO;Chistochina Airport;US;Alaska;62.56222222;-144.6725;0
1124701;11247;CZP;Cape Pole Airport;US;Alaska;55.965;-133.7933333;0
1124802;11248;CZS;Cruzeiro Do Sul Airport;BR;;-7.6;-72.76944444;0
1124906;11249;CZU;Las Brujas;CO;;9.3325;-75.28527778;0
1125005;11250;CZW;Czestochowy;PL;;50.88472222;19.20277778;0
1125106;11251;CZX;Benniu;CN;;31.92055556;119.7752778;0
1125203;11252;DAB;Daytona Beach International;US;Florida;29.18;-81.05805556;0
1125302;11253;DAC;Hazrat Shahjalal International;BD;;23.84333333;90.39777778;0
1125406;11254;DAD;Danang International;VN;;16.04416667;108.1994444;0
1125501;11255;DAE;Daet Airport;PH;;14.13055556;122.9791667;1
1125601;11256;DAF;Daup Airport;PG;;-4.73972222;145.9525;1
1125703;11257;DAG;Barstow/Daggett;US;California;34.85361111;-116.7866667;0
1125801;11258;DAK;Dakhla;EG;;25.41166667;29.00305556;0
1125904;11259;DAL;Dallas Love Field;US;Texas;32.84583333;-96.85083333;0
1126002;11260;DAM;Damascus International;SY;;33.41055556;36.51444444;0
1126105;11261;DAN;Danville Regional;US;Virginia;36.5725;-79.33638889;0
1126205;11262;DAR;Julius Nyerere International;TZ;;-6.87805556;39.2025;0
1126301;11263;DAT;Datong Airport;CN;;40.08333333;113.3;0
1126406;11264;DAU;Daru Airport;PG;;-9.08694444;143.2077778;0
1126505;11265;DAV;Enrique Malek International;PA;;8.38916667;-82.43638889;0
1126601;11266;DAX;Daxian Airport;CN;;31.3;107.5;0
1126702;11267;DAY;James M Cox/Dayton International;US;Ohio;39.90222222;-84.21944444;0
1126901;11269;DBB;Al Alamain International;EG;;30.92444444;28.46138889;0
1127101;11271;DBM;Debre Marcos;ET;;10.31944444;37.74305556;0
1127205;11272;DBN;W H Bud Barron;US;Georgia;32.56472222;-82.985;0
1127302;11273;DBO;Dubbo Airport;AU;;-32.21666667;148.5747222;0
1127402;11274;DBQ;Dubuque Regional;US;Iowa;42.40194444;-90.70944444;0
1127502;11275;DBT;Debre Tabor;ET;;11.88583333;38.00916667;1
1127607;11276;DBV;Dubrovnik Airport;HR;;42.56277778;18.26444444;0
1127702;11277;DBY;Dalby Airport;AU;;-27.15527778;151.2672222;0
1127805;11278;DCA;Ronald Reagan Washington National;US;Virginia;38.85138889;-77.03777778;0
1127905;11279;DCF;Canefield;DM;;15.33694444;-61.39194444;0
1128005;11280;DCK;Dahl Creek Airport;US;Alaska;66.9425;-156.8913889;0
1128101;11281;DCS;RAF Finningley;GB;;53.47444444;-1.00305556;1
1128202;11282;DCU;Pryor Field Regional;US;Alabama;34.65416667;-86.94527778;0
1128302;11283;DDC;Dodge City Regional;US;Kansas;37.76305556;-99.96555556;0
1128402;11284;DDP;Dorado Airport;US;Puerto Rico;18.46388889;-66.29333333;0
1128504;11285;DE1;Zweibruecken;DE;;49.20944444;7.40055556;0
1128605;11286;DEA;Farooq Ahmad Khan Leghari;PK;;29.96111111;70.48555556;0
1128703;11287;DEB;Debrecen Airport;HU;;47.48888889;21.61527778;0
1128802;11288;DEC;Decatur Airport;US;Illinois;39.83444444;-88.86555556;0
1128902;11289;DEH;Decorah Municipal;US;Iowa;43.27555556;-91.73944444;0
1129002;11290;DEL;Indira Gandhi International;IN;;28.55944444;77.09944444;0
1129105;11291;DEM;Dembi Dollo Airport;ET;;8.55416667;34.8575;0
1129202;11292;DEN;Denver International;US;Colorado;39.86166667;-104.6730556;0
1129402;11294;DES;Desroches Airport;SC;;-5.69666667;53.65583333;0
1129506;11295;DET;Coleman A. Young Municipal;US;Michigan;42.40944444;-83.01027778;0
1129601;11296;DEZ;Al Jafrah/Deir Ezzor;SY;;35.28555556;40.17583333;0
1129702;11297;DFI;Defiance Memorial;US;Ohio;41.3375;-84.42888889;0
1129806;11298;DFW;Dallas/Fort Worth International;US;Texas;32.89722222;-97.03777778;0
1129901;11299;DGB;Danger Bay Airport;US;Alaska;58.13333333;-152.55;0
1130105;11301;DGO;Durango International;MX;;24.125;-104.5283333;0
1130202;11302;DGT;Dumaguete Airport;PH;;9.33416667;123.3019444;0
1130302;11303;DGW;Converse County;US;Wyoming;42.79722222;-105.3858333;0
1130406;11304;DHA;King Abdulaziz AB;SA;;26.2625;50.15305556;0
1130601;11306;DHI;Dhangadhi Airport;NP;;28.75527778;80.58333333;0
1130702;11307;DHL;Dhala Airport;YE;;13.7375;44.72916667;0
1130802;11308;DHN;Dothan Regional;US;Alabama;31.32111111;-85.44944444;0
1130902;11309;DHT;Dalhart Municipal;US;Texas;36.0225;-102.5475;0
1131102;11311;DIB;Dibrugarh Airport;IN;;27.48361111;95.0175;0
1131202;11312;DIE;Arrachart;MG;;-12.34944444;49.29166667;0
1131301;11313;DIG;Zhongdian;CN;;27.79222222;99.67805556;0
1131406;11314;DIJ;Dijon Longvic;FR;;47.26888889;5.09;0
1131502;11315;DIK;Dickinson - Theodore Roosevelt Regional;US;North Dakota;46.79722222;-102.8019444;0
1131606;11316;DIL;Presidente Nicolau Lobato International;TL;;-8.54638889;125.5247222;0
1131702;11317;DIO;Diomede Heliport;US;Alaska;65.75861111;-168.9530556;0
1131801;11318;DIR;Aba Tenna Dejazmatch Yilma;ET;;9.62222222;41.85083333;0
1131905;11319;DIS;Dolisie Airport;CG;;-4.20611111;12.65972222;0
1132006;11320;DIU;Diu Airport;IN;;20.71361111;70.92361111;0
1132101;11321;DIV;Divo Airport;CI;;5.83333333;-5.36666667;0
1132202;11322;DIY;Diyarbakir Airport;TR;;37.89388889;40.20111111;0
1132301;11323;DJB;Paalmerah;ID;;-1.63472222;103.6416667;0
1132405;11324;DJE;Djerba Airport;TN;;33.87555556;10.77722222;0
1132501;11325;DJG;Tiska;DZ;;24.29277778;9.4525;0
1132606;11326;DJJ;Sentani;ID;;-2.57916667;140.5194444;0
1132704;11327;DJN;Delta Junction Airport;US;Alaska;64.05;-145.7225;0
1132805;11328;DJO;Daloa Airport;CI;;6.79277778;-6.47333333;0
1132901;11329;DK1;Kolding Vamdrup Airport;DK;;55.43638889;9.33083333;0
1133001;11330;DKI;Kyboola;AU;;-17.94166667;146.1366667;0
1133104;11331;DKK;Chautauqua County/Dunkirk;US;New York;42.49388889;-79.27111111;0
1133205;11332;DKR;Leopold Sedar Senghor International;SN;;14.74;-17.49055556;0
1133302;11333;DLA;Douala Airport;CM;;4.00611111;9.71944444;0
1133405;11334;DLC;Zhoushuizi;CN;;38.96555556;121.5386111;0
1133502;11335;DLF;Laughlin AFB;US;Texas;29.35944444;-100.7780556;0
1133602;11336;DLG;Dillingham Airport;US;Alaska;59.04472222;-158.5055556;0
1133705;11337;DLH;Duluth International;US;Minnesota;46.84194444;-92.19333333;0
1133802;11338;DLI;Lienkhang;VN;;11.74972222;108.3777778;0
1133901;11339;DLL;Dillon County;US;South Carolina;34.44916667;-79.36861111;0
1134002;11340;DLM;Dalaman Airport;TR;;36.71333333;28.79138889;0
1134101;11341;DLO;Dolomi Airport;US;Alaska;55.12222222;-132.05;0
1134205;11342;DLS;Columbia Gorge Regional/The Dalles Municipal;US;Oregon;45.61944444;-121.1683333;0
1134305;11343;DLU;Xiaguan;CN;;25.65;100.3188889;0
1134402;11344;DMA;Davis Monthan AFB;US;Arizona;32.16638889;-110.8830556;0
1134502;11345;DME;Domodedovo;RU;;55.40861111;37.90638889;0
1134801;11348;DMN;Deming Municipal;US;New Mexico;32.2625;-107.7188889;0
1134904;11349;DMO;Sedalia Regional;US;Missouri;38.7075;-93.17583333;0
1135001;11350;DMU;Manipur Road;IN;;25.88388889;93.77361111;0
1135105;11351;DNA;Kadena AB;JP;;26.35555556;127.7675;0
1135201;11352;DNB;Dunbar Airport;AU;;-16.01083333;142.3905556;0
1135301;11353;DNC;Duncan Canal Airport;US;Alaska;56.75694444;-133.2216667;0
1135402;11354;DND;Dundee Airport;GB;;56.4525;-3.02583333;0
1135501;11355;DNE;Dallas North;US;Texas;33.07888889;-96.73833333;0
1135702;11357;DNK;Dnipro International;UA;;48.35722222;35.10055556;0
1135805;11358;DNL;Daniel Field;US;Georgia;33.46666667;-82.03944444;0
1135902;11359;DNN;Dalton Municipal;US;Georgia;34.72305556;-84.87027778;0
1136002;11360;DNO;Dianopolis Airport;BR;;-11.59611111;-46.8475;0
1136102;11361;DNQ;Deniliquin Airport;AU;;-35.55944444;144.9463889;0
1136206;11362;DNR;Dinard Pleurtuit Saint Malo;FR;;48.58777778;-2.08;0
1136302;11363;DNV;Vermilion Regional;US;Illinois;40.19972222;-87.59555556;0
1136501;11365;DNZ;Cardak;TR;;37.78555556;29.70138889;0
1136606;11366;DOD;Dodoma Airport;TZ;;-6.17027778;35.74944444;0
1136701;11367;DOF;Dora Bay Airport;US;Alaska;55.23333333;-132.2166667;0
1136802;11368;DOG;Dongola Airport;SD;;19.15388889;30.43;0
1136902;11369;DOH;Doha International;QA;;25.26111111;51.565;0
1137006;11370;DOK;Donetsk International;UA;;48.075;37.72555556;0
1137107;11371;DOL;Deauville Normandie;FR;;49.36527778;0.15444444;0
1137208;11372;DOM;Douglas Charles;DM;;15.54666667;-61.30138889;0
1137301;11373;DON;Dos Lagunas Airport;GT;;17.69388889;-89.53111111;0
1137402;11374;DOU;Dourados Airport;BR;;-22.20194444;-54.92666667;0
1137502;11375;DOV;Dover AFB;US;Delaware;39.12944444;-75.46583333;0
1137601;11376;DPA;Du Page County;US;Illinois;41.91555556;-88.24666667;0
1137703;11377;DPG;Michael AAF;US;Utah;40.1975;-112.935;0
1137802;11378;DPL;Dipolog Airport;PH;;8.60138889;123.3416667;0
1137902;11379;DPO;Devonport Airport;AU;;-41.16972222;146.4302778;0
1138005;11380;DPS;Gusti Ngurah Rai International;ID;;-8.74833333;115.1675;0
1138101;11381;AA8;Badami;US;Alaska;70.1375;-147.0305556;0
1138203;11382;DQB;Montijo Airport;PT;;38.705;-9.0375;0
1138302;11383;DQC;Sebastian Municipal;US;Florida;27.81333333;-80.49555556;0
1138402;11384;DQD;Allen H Tigert;US;Idaho;42.64861111;-111.5819444;0
1138502;11385;DQE;Holtville Airport;US;California;32.845;-115.2686111;0
1138705;11387;DQG;Springfield Robertson County;US;Tennessee;36.53666667;-86.92111111;0
1138802;11388;DQH;Alpine Airstrip;US;Alaska;70.34416667;-150.9447222;0
1138903;11389;DQI;Colusa County;US;California;39.17888889;-121.9933333;0
1139005;11390;DQJ;Dunn County Weydahl Field;US;North Dakota;47.39138889;-102.7719444;0
1139106;11391;DQK;Wheeler-Sack AAF;US;New York;44.05555556;-75.71972222;0
1139203;11392;DQL;Lake Hood;US;Alaska;61.18666667;-149.9652778;0
1139402;11394;DQN;New Smyrna Beach Municipal;US;Florida;29.05555556;-80.94888889;0
1139501;11395;DQO;Delhi Municipal;US;Louisiana;32.41083333;-91.49861111;0
1139601;11396;DQP;Marshall Field;US;Kentucky;38.23638889;-89.35861111;0
1139702;11397;DQQ;Cozad Municipal;US;Nebraska;40.86972222;-100.0041667;0
1139803;11398;DQR;Grand Canyon West;US;Arizona;35.98611111;-113.8169444;1
1139902;11399;DQS;Grand Canyon Bar Ten Airstrip;US;Arizona;36.25638889;-113.2308333;0
1140005;11400;DQT;Boscombe Down;GB;;51.15361111;-1.74083333;0
1140101;11401;DQU;Neets Bay;US;Alaska;55.77888889;-131.6013889;0
1140201;11402;DQV;Glacier Point;US;Alaska;59.1025;-135.3822222;0
1140301;11403;DQW;Hualapai;US;Arizona;35.57222222;-113.2925;0
1140401;11404;DQX;Tsui River Airport;US;Alaska;60.07472222;-143.0866667;0
1140503;11405;DQY;Cape Canaveral AFS Skid Strip;US;Florida;28.4675;-80.56666667;0
1140601;11406;DQZ;Platinum Mine;US;Alaska;58.91166667;-161.7138889;0
1140705;11407;DRA;Desert Rock;US;Nevada;36.62;-116.0322222;0
1140802;11408;DRB;Derby Airport;AU;;-17.37;123.6605556;0
1140902;11409;DRE;Drummond Island Airport;US;Michigan;46.00944444;-83.74388889;0
1141002;11410;DRF;Drift River Airport;US;Alaska;60.58888889;-152.1619444;0
1141105;11411;DRG;Deering Airport;US;Alaska;66.06916667;-162.7669444;0
1141202;11412;DRN;Dirranbandi Airport;AU;;-28.59166667;148.2166667;0
1141307;11413;DRO;Durango La Plata County;US;Colorado;37.15166667;-107.7538889;0
1141403;11414;DRS;Dresden Airport;DE;;51.13444444;13.76805556;0
1141501;11415;DRT;Del Rio International;US;Texas;29.37416667;-100.9272222;0
1141602;11416;DRU;Drummond Airport;US;Montana;46.62083333;-113.205;0
1141702;11417;DRW;Darwin International;AU;;-12.41472222;130.8769444;0
1141804;11418;DSA;Doncaster Sheffield;GB;;53.47527778;-1.00416667;0
1141901;11419;DSD;La Desirade Airport;GP;;16.33333333;-61.01666667;0
1142005;11420;DSE;Dessie/Combolcha;ET;;11.0825;39.71166667;0
1142104;11421;DSI;Destin Executive;US;Florida;30.4;-86.47138889;0
1142202;11422;DSK;D. I. Khan;PK;;31.90944444;70.89666667;0
1142307;11423;DSM;Des Moines International;US;Iowa;41.53388889;-93.66305556;0
1142406;11424;DTA;Delta Municipal;US;Utah;39.38361111;-112.5022222;0
1142502;11425;DTH;Furnace Creek;US;California;36.46055556;-116.8797222;0
1142702;11427;DTL;Detroit Lakes-Wething Field;US;Minnesota;46.82527778;-95.88555556;0
1142803;11428;DTM;Dortmund Airport;DE;;51.51916667;7.61444444;0
1142902;11429;DTN;Shreveport Downtown;US;Louisiana;32.54083333;-93.74388889;0
1143006;11430;DTO;Denton Enterprise;US;Texas;33.20194444;-97.19916667;0
1143101;11431;DTR;Decatur;US;Washington;48.51;-122.8030556;0
1143201;11432;DTT;Detroit Metropolitan Area;US;Michigan;42.31277778;-83.17861111;0
1143302;11433;DTW;Detroit Metro Wayne County;US;Michigan;42.2125;-83.35333333;0
1143401;11434;DUA;Eaker Field;US;Oklahoma;33.93333333;-96.4;0
1143504;11435;DUB;Dublin Airport;IE;;53.425;-6.26305556;0
1143602;11436;DUC;Halliburton Field;US;Oklahoma;34.47138889;-97.95972222;0
1143702;11437;DUD;Dunedin Airport;NZ;;-45.92916667;170.1975;0
1143803;11438;DUE;Dundo Airport;AO;;-7.40277778;20.81694444;0
1143902;11439;DUF;Pine Island;US;North Carolina;36.25361111;-75.78861111;0
1144005;11440;DUG;Bisbee Douglas International;US;Arizona;31.46888889;-109.6038889;0
1144102;11441;DUJ;DuBois Regional;US;Pennsylvania;41.17833333;-78.89861111;0
1144204;11442;DUQ;Duncan;CA;British Columbia;48.75472222;-123.7097222;0
1144301;11443;DUR;Louis Botha;ZA;;-29.97;30.95;1
1144407;11444;DUS;Duesseldorf;DE;;51.28944444;6.76666667;0
1144505;11445;DUT;Unalaska Airport;US;Alaska;53.89888889;-166.545;0
1144602;11446;DVK;Diavik Airport;CA;Northwest Territories;64.51138889;-110.2897222;0
1144705;11447;DVL;Devils Lake Regional;US;North Dakota;48.11666667;-98.91;0
1144802;11448;DVN;Davenport Municipal;US;Iowa;41.61027778;-90.58833333;0
1144902;11449;DVO;Francisco Bangoy International;PH;;7.12555556;125.6458333;0
1145002;11450;DVT;Phoenix - Deer Valley;US;Arizona;33.68833333;-112.0825;0
1145202;11452;DWA;Yolo County;US;California;38.57944444;-121.8569444;0
1145303;11453;DWH;David Wayne Hooks Memorial;US;Texas;30.06166667;-95.55277778;0
1145401;11454;DWS;Walt Disney World;US;Florida;28.38361111;-81.55;1
1145501;11455;DXB;Dubai International;AE;;25.25138889;55.37055556;0
1145602;11456;DXR;Danbury Municipal;US;Connecticut;41.37166667;-73.48222222;0
1145705;11457;DYG;Hehua;CN;;29.10305556;110.4436111;0
1145807;11458;DYR;Ugolny;RU;;64.735;177.7383333;0
1145905;11459;DYS;Dyess AFB;US;Texas;32.42055556;-99.85472222;0
1146003;11460;DYU;Dushanbe Airport;TJ;;38.54361111;68.82444444;0
1146102;11461;DZA;Dzaoudzi-Pamandzi;YT;;-12.80916667;45.28194444;0
1146201;11462;DZO;Durazno Airport;UY;;-33.36666667;-56.51666667;0
1146302;11463;EAA;Eagle Airport;US;Alaska;64.77805556;-141.1497222;0
1146401;11464;EAG;Eagle Creek Strip;US;Alaska;67.56222222;-162.9752778;0
1146602;11466;EAM;Nejran Airport;SA;;17.61111111;44.41861111;0
1146707;11467;EAN;Phifer Airfield;US;Wyoming;42.05555556;-104.9283333;0
1146802;11468;EAR;Kearney Regional;US;Nebraska;40.72694444;-99.00666667;0
1146902;11469;EAS;San Sebastian Airport;ES;;43.35638889;-1.79055556;0
1147005;11470;EAT;Pangborn Memorial;US;Washington;47.39888889;-120.2069444;0
1147103;11471;EAU;Chippewa Valley Regional;US;Wisconsin;44.86583333;-91.48416667;0
